公司名称,岗位,所属岗位,薪资,平均薪资（千/月）,地址,所属城区,经度,纬度
天津四维企业有限公司,仓库管理员,仓库管理员,3-4.5千/月,3.75,天津经济技术开发区黄海路101号,滨海新区,117.69869,39.047215
天津顶正印刷包材有限公司,仓库管理员,仓库管理员,3-4.5千/月,3.75,天津经济技术开发区渤海路19号,滨海新区,117.685586,39.057197
禧天龙科技发展有限公司,仓库管理员,仓库管理员,4.5-6千/月,5.25,天津滨海高新区风光大道12号,东丽区,117.517777,39.113883
中爱科技（北京）有限责任公司,库房管理,仓库管理员,3-6千/月,4.5,天津市东丽区空港经济区中环南路39号神州通物流园,东丽区,117.420484,39.128096
航佳机场商业机构,仓管,仓库管理员,3-3.5千/月,3.25,天津滨海国际机场,东丽区,117.367385,39.139655
中铁现代物流科技股份有限公司天津分公司,收发料员,搬运工,3-5千/月,4,八里台工业园区,津南区,117.341005,38.963667
天津四环汽车内饰件有限公司,库管员,仓库管理员,3-4.5千/月,3.75,现代产业区健捷路与华康道交口,滨海新区,117.450428,39.251075
天津光电惠高电子有限公司,仓库管理专员,仓库管理员,3-4.5千/月,3.75,天津市河西区泰山路6号,河西区,117.23622,39.093277
中联信达（天津）科技发展有限公司,包装工,搬运工,3-4.5千/月,3.75,天津市宝坻区九园工业区北环路9号,宝坻区,,
深圳市华夏龙供应链管理有限公司,物流操作员,仓库管理员,3-5千/月,4,天津市北辰区大张庄镇南王平村村南津围公路东,北辰区,117.225842,39.337148
天士力控股集团有限公司,聘拆零及内复核员,仓库管理员,3-4.5千/月,3.75,天士力,北辰区,117.219331,39.21802
天津盛世欣兴格力电器贸易有限公司,配件管理员,仓库管理员,3-4.5千/月,3.75,空港经济区中心大道与东七道交口远航商务中心,东丽区,117.414376,39.148425
吉中（天津）汽车内饰件有限公司,仓库主管,仓库主管,4.5-6千/月,5.25,西青经济技术开发区赛达四支路7号,西青区,117.261874,38.988916
广州一智通供应链管理有限公司,仓库管理员（宜家项目）,仓库管理员,4-6千/月,5,纬十道125号,河北区,117.461458,39.109883
上海方通车运物流有限公司北京运输分公司,调度员,调度员,3-5千/月,4,天津市滨海新区天保永利物流（渤海10路）院内方通物流停车场,滨海新区,,
天津汉晴环保科技有限公司,仓库管理员,仓库管理员,3-4.5千/月,3.75,学府工业区慧谷东区,河北区,117.095905,39.056704
招商路凯（中国）投资控股有限公司,OPS-叉车司机（Forklift Driver）,调度员,3-4.5千/月,3.75,天津市东丽区合兴路国家物资储备八三八处,东丽区,,
天津百联硕办公文具有限公司,晨光电商部门后勤主管,仓库主管,4.5-6千/月,5.25,天津市北辰区汇川商贸城（原蓝海商贸城）,北辰区,117.195461,39.208353
天津市泰斯特仪器有限公司,仓库管理员,仓库管理员,3-4.5千/月,3.75,杨成庄乡北洋工业园,津南区,117.069707,38.998032
天津艾克凯胜石墨烯科技有限公司,仓库管理员,仓库管理员,2-4千/月,3,东丽开发区丽新路10号,东丽区,117.351167,39.082408
天津市金舵手服装有限公司,仓库理货员,理货员,3-4.5千/月,3.75,文静路4号,河西区,117.207018,39.103316
北京迈得诺医疗技术有限公司,仓库管理员,仓库管理员,3-4.5千/月,3.75,南开区,南开区,117.156515,39.144105
箱信（天津）国际货运代理有限公司,现场理货（塘沽+五险一金）,理货员,3-4.5千/月,3.75,京门大道188号,滨海新区,117.767087,39.020467
中国电子系统工程第二建设有限公司国际事业部,仓库管理员,仓库管理员,3-4.5千/月,3.75,逸仙工业园区三星视界附近（一家酒店）,南开区,117.040345,39.414671
曙光信息产业股份有限公司,库管员(天津）,仓库管理员,4-6千/月,5,海泰华科大街15号,西青区,117.084504,39.103427
天津中澳嘉喜诺生物科技有限公司,仓库管理员,仓库管理员,2.5-4千/月,3.25,天津市武清区徐官屯工业区泰源道5号,武清区,117.090229,39.403751
中铁现代物流科技股份有限公司天津分公司,拉料员,调度员,3-5千/月,4,八里台工业园区,津南区,117.341005,38.963667
中铁现代物流科技股份有限公司天津分公司,理货员,理货员,3-5千/月,4,八里台工业园区,津南区,117.341005,38.963667
中铁现代物流科技股份有限公司天津分公司,叉车司机,调度员,4-6千/月,5,八里台工业园区,津南区,117.341005,38.963667
禧天龙科技发展有限公司,账务员,仓库管理员,4.5-6千/月,5.25,天津滨海高新区风光大道12号,东丽区,117.517777,39.113883
广州一智通供应链管理有限公司,物流专员,仓库管理员,4-6千/月,5,十路125号宜家物流分拨中心,河北区,117.461458,39.109883
天津盛世欣兴格力电器贸易有限公司,仓库管理员,仓库管理员,3-4.5千/月,3.75,津汉公路宅急送院内,和平区,117.277659,39.156519
跨越速运集团有限公司,诚招仓库主管,仓库主管,5-7千/月,6,空港经济区领航路(金加利有限公司)旁跨越物流有限公司,东丽区,,
天津同创顶立机械有限公司,仓库管理员,仓库管理员,4-6千/月,5,天津武清开发区泉丰路9号,武清区,117.033094,39.428186
北京玖程龙禹科贸有限公司,仓库理单员,仓库管理员,3-4.5千/月,3.75,大碱厂南辛庄（天津玖程龙禹科技有限公司),武清区,117.091679,39.440928
天津北特铝合金精密制造有限公司,仓库管理员,仓库管理员,3-4.5千/月,3.75,经济开发区北区七号路中央大道16号,静海县,118.862854,32.142034
中铁现代物流科技股份有限公司天津分公司,物流专员,仓库管理员,3-5千/月,4,八里台工业园区,津南区,117.341005,38.963667
富诺尔（天津）压缩机科技有限公司,仓库管理员,仓库管理员,3-4.5千/月,3.75,天津市津南区八里台镇泰达工业园科达五路5-1号,津南区,117.355547,38.962302
天津莎莎智城餐饮有限公司,仓储物流主管,仓库主管,4.5-6千/月,5.25,腾达园内兴华十支路20号C座,西青区,117.20874,39.033396
天津得窝恩电子有限公司,仓库管理员,仓库管理员,2-4千/月,3,天津西青汽车工业区（张家窝工业园区）汇源路12号,西青区,117.051006,39.081141
北京曼可顿食品科技有限公司,仓库管理员,仓库管理员,3-4.5千/月,3.75,天津市东丽区跃进路福元路交口,东丽区,117.29858,39.208952
天津市津尔安科技发展有限公司,仓库主管,仓库主管,4.8-5.5千/月,5.15,天津滨海高新区华苑产业区（环外）海泰创新五路8号,西青区,117.084321,39.080039
高能智核环保科技有限公司,仓库物流主管,仓库主管,6-8千/月,7,天津市滨海高新区滨海科技园高新三路120号,东丽区,,
天津大田物流有限公司,叉车工,调度员,3-4.5千/月,3.75,塘沽第十三大街与泰安路交口出口加工区内,静海县,117.647028,39.028402
高能智核环保科技有限公司,仓库管理员,仓库管理员,4.5-6千/月,5.25,天津市滨海高新区滨海科技园高新三路120号,东丽区,117.533447,39.139851
本来生活网,果蔬加工主管,仓库主管,6-8千/月,7,天津西青区工业大学软件学院A8504,西青区,117.113679,39.075004
天狮集团有限公司,仓库主管(J10553),仓库主管,4.5-6千/月,5.25,天津市武清开发区新源道18号天狮国际健康产业园,武清区,117.02486,39.437302
天津睿博龙物流股份有限公司,现场客服,仓库管理员,3-4.5千/月,3.75,华粮道2298号全程物流,东丽区,117.329929,39.206448
北京万里伟业物流有限公司,物料保管员,仓库管理员,3.5-5千/月,4.25,天津市北辰区西提头镇陆路港物流装备产业园22号库,北辰区,117.338623,39.262667
天津千顺科技有限公司,仓库管理员实习生,仓库管理员,4.5-6千/月,5.25,天津-和平区,和平区,117.221467,39.12339
天津市英辰精密模具有限公司,仓库管理员,仓库管理员,3-4.5千/月,3.75,天津市北辰区津围公路华盛道61号,北辰区,117.250358,39.239602
中豪（天津）电力科技股份有限公司,仓库管理员,仓库管理员,2-3千/月,2.5,八里台工业园区丰泽三大道15号,津南区,117.171172,39.097845
天津鸿泰鑫阳环保科技有限公司,仓库领班,仓库管理员,4.5-6千/月,5.25,天津鸿泰鑫阳环保有限公司,河北区,,
天津市现代天骄农业科技有限公司,叉车工,调度员,3.5-6千/月,4.75,天津市宝坻区大口屯镇汪台村南（现代天骄科技园）,宝坻区,117.244485,39.59154
泗阳金美润食品有限公司,仓库管理员（男）,仓库管理员,3-6千/月,4.5,八里台镇泰达工业园区开拓二支路5号,津南区,117.352016,38.956747
跨越速运集团有限公司,仓库管理员,仓库管理员,3-4.5千/月,3.75,空港经济区领航路(金加利有限公司)旁跨越物流有限公司,东丽区,,
普拉那（天津）复合制品有限公司,物流分拣员,搬运工,4.5-6千/月,5.25,天津经济开发区南海路156号通厂33号,滨海新区,117.721001,39.06131
武汉亿钜鑫网络科技有限公司,仓库管理员,仓库管理员,4.5-6千/月,5.25,天津市河西区,河西区,117.229417,39.115717
凌岛（天津）建筑设计咨询有限公司,仓库管理专员/经验不限,仓库管理员,4.5-6千/月,5.25,天津市西青区,西青区,117.014408,39.148727
瑞泽兴工品科技（天津）有限公司,仓库管理文员,仓库管理员,3.5-4.5千/月,4,津文线与裕华道交叉口,西青区,117.093412,39.02874
欧蒙医学诊断（中国）有限公司,主计划员 Master planner,仓库管理员,6-8千/月,7,天津市武清开发区创业总部基地,武清区,117.057649,39.413926
天津市鑫源包装有限公司,仓库主管,仓库主管,4.5-6千/月,5.25,天津市静海区天宇科技园,静海县,116.996358,38.907291
欧蒙医学诊断（中国）有限公司,库管员 Warehouse Keeper,仓库管理员,3-5千/月,4,天津市武清开发区创业总部基地,武清区,117.057649,39.413926
北京普罗格科技股份有限公司,仓库组长,仓库管理员,4-5.5千/月,4.75,天津市武清区京滨工业园菜鸟网络4号库,武清区,116.796014,39.55822
天津市鑫源包装有限公司,仓库管理员（天津-静海区）,仓库管理员,3-4.5千/月,3.75,天津市静海区 杨家园开发区,静海县,116.941179,38.860073
天津富通集团有限公司,仓库管理员,仓库管理员,3-4.5千/月,3.75,天津市西青经济开发区赛达世纪大道10号,西青区,117.269463,38.988991
天津市骏发汽车维修服务有限公司,库管,仓库管理员,3-4.5千/月,3.75,天津市河东区一号桥耐火路11号,河东区,117.288282,39.108222
浙江冠豪新材料有限公司,仓库管理员,仓库管理员,4.5-6千/月,5.25,华明高新产业园弘顺道8号院内,东丽区,117.35567,39.174892
天津现代创新中药科技有限公司,仓库管理员,仓库管理员,4.5-6千/月,5.25,华苑产业园,宝坻区,117.136466,39.102233
天津正广通供应链管理有限公司,驻场调度,调度员,4.5-6千/月,5.25,窦店,河北区,116.071638,39.644374
安擎（天津）计算机有限公司,仓库管理,仓库管理员,4.5-6.5千/月,5.5,福源道北侧创业总部基地C02号楼4层西侧,武清区,117.053687,39.415124
孩子王儿童用品股份有限公司,仓管员（天佑城店）,仓库管理员,2-4千/月,3,天津市南开区南马路与西马路交叉口天佑城购物中心（地铁1/2号线西南角地铁站）,南开区,117.178611,39.143134
铜陵佩物物流有限公司,急招叉车司机,调度员,4.5-5.5千/月,5,西青区王稳庄嘉民物流中心,西青区,117.296034,38.874709
江苏正远储运有限公司,现场调度,调度员,4-6千/月,5,天津西青区西青道奥森物流A区,西青区,117.062764,39.154892
广州宝供仓储服务有限公司,设备管理员,仓库管理员,4.5-6千/月,5.25,天津市宁河区宁河现代产业区安捷西路2号安博天津宁河物流中心3号库,宁河县,117.433538,39.24614
天津明日宇航新材料科技有限公司,库管员,仓库管理员,4.5-6千/月,5.25,东丽开发区二纬路3号,东丽区,117.355007,39.084816
天津光电比特信息技术有限公司,仓库管理员,仓库管理员,3-5千/月,4,天津市西青区精武镇慧谷工业园西区D3B2,西青区,117.090655,39.056077
跨越速运集团有限公司,塘沽仓储专员,仓库管理员,4.5-6千/月,5.25,天津市塘沽区丹江路369号1楼,滨海新区,117.671854,39.064171
长沙远大住宅工业集团有限公司（天津）,仓库管理员,仓库管理员,4-6千/月,5,高端装备产业园区山河路与永丰道交口,北辰区,117.176709,39.32053
麦格纳汽车镜像（天津）有限公司,仓库管理员,仓库管理员,2-3千/月,2.5,天津空港经济区中环西路491号,东丽区,117.376936,39.167705
吉宝物流（天津生态城）有限公司,仓库理货员（第三方招聘）,理货员,3-4.5千/月,3.75,中新生态城运河北路2118号,红桥区,117.749335,39.131169
天津塞科凯尔科技有限公司,库管(职位编号：000737),仓库管理员,3.5-5千/月,4.25,武清,武清区,117.050597,39.389871
山东威高医药有限公司,仓库管理员,仓库管理员,3.5-4.5千/月,4,津南区旺港路18号,津南区,117.310079,39.040447
日邮振华物流（天津）有限公司,库管,仓库管理员,2-4千/月,3,经济技术开发区,滨海新区,117.715311,39.033789
天津杰斯通物流有限公司,装卸工,搬运工,6-8千/月,7,天津武清开发区,武清区,117.074294,39.408842
日邮振华物流（天津）有限公司,调度主管,仓库主管,2-4千/月,3,经济技术开发区,滨海新区,117.715311,39.033789
小米通讯技术有限公司,小米之家库管员（滨海万达店）,仓库管理员,4.5-6千/月,5.25,滨海万达,河北区,117.685147,39.020866
蓝月亮（中国）有限公司,仓库管理员/库管/仓管员,仓库管理员,3-5千/月,4,天津市西青区大寺经济开发区赛达四支路18号,西青区,117.268405,38.985088
广东绿岛风空气系统股份有限公司,外派仓管员,仓库管理员,6-6.5千/月,6.25,武清区,武清区,117.0506,39.389871
天津市精科国际贸易有限公司,质检仓库主管,仓库主管,3-4.5千/月,3.75,郁江道三源振河科技园,河西区,117.250241,39.081381
天津昂赛细胞基因工程有限公司,仓库管理员,仓库管理员,3-4.5千/月,3.75,天大科技园B3座,滨海新区,117.70576,39.044908
天津市东方弘叶木业制品有限责任公司,仓库管理文员,仓库管理员,2-3千/月,2.5,双街镇朗园开发区,北辰区,117.112785,39.290361
美菜网,发运组长,仓库管理员,4-6千/月,5,天津市北辰区交通集团城市物流配送中心,北辰区,117.172458,39.215325
天津长飞鑫茂光通信有限公司,仓库管理员,仓库管理员,3.5-4.5千/月,4,华苑产业园区榕苑路10号,西青区,117.128004,39.096734
美菜网,收退组长,仓库管理员,4-6千/月,5,天津市北辰区交通集团城市物流配送中心,北辰区,117.172458,39.215325
天津市甄智协尔企业管理咨询有限公司,开发区日企招聘仓库管理员(职位编号：3309),仓库管理员,3-4.5千/月,3.75,开发区,河北区,117.550407,39.097212
北京北海建材集团有限公司,仓库管理员,仓库管理员,3.5-4千/月,3.75,子牙工业区,静海县,116.793397,38.851274
安徽国力物流有限公司,仓库管理员,仓库管理员,3-5千/月,4,天津市津南区北闸口镇普洛斯津南物流园,津南区,117.353933,38.967396
天津卡秀堡辉涂料有限公司,仓库管理员,仓库管理员,3.5-4.5千/月,4,武清开发区新平路3号,武清区,116.995193,39.438492
宜家物流服务（中国）有限公司天津分公司,Sea to Sky 物流管理者培养项目,仓库管理员,3-4千/月,3.5,空港经济区纬十道125号,东丽区,117.459096,39.109794
跨越速运集团有限公司,诚聘仓库主管1名,仓库主管,5-7千/月,6,华明镇EOD总部港,东丽区,117.373064,39.171076
天津泰士康医疗科技有限公司,仓库管理员,仓库管理员,3-4.5千/月,3.75,津南区双港工业园区,津南区,117.31549,39.038918
华润五丰农产品（深圳）有限公司,ERP主管（五险一金+双休）,仓库主管,4.5-6千/月,5.25,海泰国际公寓2522,西青区,117.135758,39.102326
天津象屿速传物流有限公司,现场监管员（包头）,仓库管理员,2-4千/月,3,包头,河北区,109.84654,40.662929
中施柯朗（天津）污泥治理处理工程股份有限公司,库房管理员兼接待员,仓库管理员,3-4.5千/月,3.75,天津市塘沽区北塘开发区建投领海福地商务园2号5门6门,滨海新区,117.73152,39.106585
常源科技（天津）有限公司,模具厂仓库主管,仓库主管,6-8千/月,7,空港保税区蔷薇路12号,东丽区,117.389905,39.157254
绿建（天津）新材料科技有限公司,仓库管理员,仓库管理员,2.5-3千/月,2.75,子牙循环经济产业区长春道22号,静海县,116.831372,38.88486
中安广源检测评价技术服务股份有限公司,行政库管,仓库管理员,3-4.5千/月,3.75,昆仑路东侧矽谷港湾D区D2-7-1号 中安广源,东丽区,,
施耐德万高（天津）电气设备有限公司,仓库上料员,搬运工,2.8-3.5千/月,3.15,天津滨海高新区华苑产业区(环外)海泰创新六路11号,西青区,117.076324,39.089108
江苏天合国际物流有限公司,驻厂代表,仓库管理员,5-8千/月,6.5,天津市滨海新区塘沽新港四号路北 中储发展股份有限公司天津新港分公司内现场办公,东丽区,,
凯莱英生命科学技术（天津）有限公司,库房管理员,仓库管理员,4.5-6千/月,5.25,经济技术开发区第七大街71号,滨海新区,117.734427,39.051037
常州市上锐工业紧固件有限公司,物控主管/经理,仓库主管,6-8千/月,7,天津市武清开发区发达路6号第2号厂房,武清区,117.060979,39.406467
江苏天合国际物流有限公司,现场监管员,仓库管理员,5-8千/月,6.5,天津市滨海新区塘沽新港四号路北 中储发展股份有限公司天津新港分公司内现场办公,东丽区,,
江苏天合国际物流有限公司,物流专员,仓库管理员,5-8千/月,6.5,天津市滨海新区塘沽新港四号路北 中储发展股份有限公司天津新港分公司内现场办公,东丽区,,
苏宁易购集团股份有限公司,仓库管理员,仓库管理员,4.5-6千/月,5.25,光荣道147号,红桥区,117.156835,39.182735
辽宁爱普罗斯饲料有限公司,原料保管,仓库管理员,3.5-4.5千/月,4,唐山市芦台经济开发区二社区（北粮农业西侧）,宁河县,,
天津市裕隆达商贸有限公司,仓库管理员,仓库管理员,3-4.5千/月,3.75,卫国道132号（地铁2号线翠阜新村站对面）,河东区,117.264018,39.150219
天津派格汽车零部件有限公司,计划员（天津空港）,仓库管理员,3-5千/月,4,天津市空港经济区西十一道与航空路交口（应大对面）,东丽区,117.422757,39.134694
宁波中翔物流有限公司,信息员,仓库管理员,4.5-6千/月,5.25,一汽大众汽车工业园区内,河北区,117.782534,39.314592
天津鸿宝祥食品科技有限公司,仓库主管,仓库主管,3-4千/月,3.5,北辰经济技术开发区京福公路西100米九合园9号楼,北辰区,117.035994,39.238479
川铁电气（天津）股份有限公司,成套仓库管理员（赣州）,仓库管理员,3-4.5千/月,3.75,赣州市赣州经济开发区赣通大道109号,章贡区,114.895072,25.876141
天津圣世特物流有限公司,现场外勤,搬运工,3-4.5千/月,3.75,天津塘沽及周边,滨海新区,117.655923,39.066897
苏宁易购集团股份有限公司,前置仓主管,仓库主管,4.5-6千/月,5.25,光荣道147号,红桥区,117.156835,39.182735
苏宁易购集团股份有限公司,仓库管理员,仓库管理员,4.5-6千/月,5.25,罗平道7号华创大厦,南开区,117.141562,39.125421
苏宁易购集团股份有限公司,前置仓主管,仓库主管,4.5-6千/月,5.25,罗平道7号华创大厦,南开区,117.141562,39.125421
苏宁易购集团股份有限公司,鲜食专员,仓库管理员,4.5-6千/月,5.25,罗平道7号华创大厦,南开区,117.141562,39.125421
施梦（天津）乳胶有限公司,仓库管理员(职位编号：001),仓库管理员,4.5-6千/月,5.25,天津自贸区（天津港保税区）空港蔷薇路12号-2号楼,东丽区,117.389905,39.157254
广州市巴图鲁信息科技有限公司,物流分拣/打包员,搬运工,4.5-5千/月,4.75,天津市武清区东马圈镇武落路与大东线交口佩森物流园区,武清区,116.880805,39.53713
施梦（天津）乳胶有限公司,电商仓库 配货员,仓库管理员,4.5-6千/月,5.25,天津自贸区（天津港保税区）空港蔷薇路12号-2号楼,东丽区,117.389905,39.157254
天津市鹿艺园餐饮管理有限公司,仓库管理员,仓库管理员,2-3千/月,2.5,南城街铜锣湾花园6号楼2门102鹿园西餐,南开区,117.194418,39.144175
爱克林(天津)有限公司,仓库包装工,搬运工,3.5-4.5千/月,4,天津经济技术开发区第6大街72号,滨海新区,117.709427,39.055296
北京丽阳虹科技有限公司,出纳,仓库管理员,4.5-6千/月,5.25,五经路16号8号楼3层,河北区,117.208826,39.139848
天津博纳艾杰尔科技有限公司,仓库保管员,仓库管理员,3-4.5千/月,3.75,天津开发区西区南大街179号,东丽区,117.551021,39.078582
天津市信泰科技发展有限公司,仓库管理员,仓库管理员,3-4.5千/月,3.75,天津市西青区王稳庄镇赛达工业园盛达一支路16号,西青区,117.274175,38.903552
廊坊澳美基业房地产开发有限公司,仓库管理员,仓库管理员,3.5-5千/月,4.25,廊坊开发区祥云道69号,河北区,116.783095,39.573199
上海中智项目外包咨询服务有限公司,美资涂料公司-第三方物流仓库管理专员,仓库管理员,4-4.2千/月,4.1,天津市经济技术开发区黄海路,滨海新区,117.717176,39.088374
美菜网,分拣组长,搬运工,4-6千/月,5,天津市北辰区交通集团城市物流配送中心,北辰区,117.172458,39.215325
深圳招商美冷供应链有限公司,应届毕业生,仓库管理员,2-3千/月,2.5,天津市东丽区空港经济区航空路152号,东丽区,117.418705,39.13335
天津市恒奥科技发展有限公司,仓库管理员,仓库管理员,3-4.5千/月,3.75,天津市华苑产业区榕苑路15号9-8-D,西青区,117.228935,39.133884
天津市鸿裕强机械制造有限公司,仓库管理员,仓库管理员,3-4.5千/月,3.75,宜兴埠镇东马道6号,北辰区,117.196709,39.151274
深圳万讯自控股份有限公司,机械库管理员-亿环（工作地点：天津）,仓库管理员,3-4.5千/月,3.75,北辰科技园区景丽路15号,北辰区,117.207121,39.227717
天津市拉贝尔实验室设备有限公司,仓库管理员,仓库管理员,3-4.5千/月,3.75,天宇科技园天宇大道16号,静海县,116.979702,38.904939
苏宁易购集团股份有限公司,冷链仓储员,仓库管理员,4-6千/月,5,天津北辰区,北辰区,117.141401,39.230342
苏宁易购集团股份有限公司,冷链仓储管理员,仓库管理员,4-6千/月,5,天津北辰区,北辰区,117.141401,39.230342
天津雅闻菲德自动化技术有限公司,仓管/仓库管理员,仓库管理员,3-4.5千/月,3.75,空港经济区中心大道555号,东丽区,117.431247,39.128409
天津市悦鑫建筑装饰工程有限公司,搬运工,搬运工,4-5千/月,4.5,宜宾道9号,南开区,117.139468,39.133825
康龙化成（北京）新药技术股份有限公司,物料管理员04212(000676)(职位编号：000676),仓库管理员,4.5-6千/月,5.25,天津市经济技术开发区西区新业七街,滨海新区,117.552962,39.099598
天津吉鸥进出口贸易有限公司,仓库管理员,仓库管理员,3-4.5千/月,3.75,大沽南路,河西区,117.296231,39.07165
天津艾肯物业服务有限公司,维斯塔斯 急招库管 待遇优厚,仓库管理员,3-6千/月,4.5,天津泰达经济技术开发区,滨海新区,117.688171,39.033843
智邦（天津）卫生用品科技有限公司,装卸工(职位编号：05),搬运工,3-4.5千/月,3.75,空港经济区西十五道与航空路交口,东丽区,,
卓凡（天津）电子商务有限公司,理货员,理货员,2.5-3.5千/月,3,天津市东丽区空港经济区欧贸城市广场地下负二层,东丽区,117.420079,39.160424
海斯坦普汽车组件（天津）有限公司,仓库主管 Warehouse Supervisor,仓库主管,6-8千/月,7,开源道22号,红桥区,117.065226,39.405467
智邦（天津）卫生用品科技有限公司,工厂诚聘库管(职位编号：04),仓库管理员,4.5-6千/月,5.25,空港经济区西十五道与航空路交口,东丽区,,
天津市悦鑫建筑装饰工程有限公司,（物流）货运司机,调度员,5-6千/月,5.5,宜宾道9号,南开区,117.139468,39.133825
天津市悦鑫建筑装饰工程有限公司,搬运工,搬运工,4.5-6千/月,5.25,宜宾道9号,南开区,117.139468,39.133825
天津市浦亚照明电器有限公司,仓库配货员,仓库管理员,2-4千/月,3,天津市河东区成林道110号,河东区,117.272765,39.135186
天津市浦亚照明电器有限公司,仓库配货员,仓库管理员,2-3千/月,2.5,天津市河东区成林道110号,河东区,117.272765,39.135186
天津市浦亚照明电器有限公司,仓库管理员,仓库管理员,2-4.5千/月,3.25,天津市河东区成林道110号,河东区,117.25523,39.135976
上海瑞淳物流有限公司,运输调度,调度员,4.5-6千/月,5.25,赛达二支路13号A2-3库,西青区,117.266208,38.992865
天津市娜国瑞餐饮管理有限公司,娜娜家  库管员,仓库管理员,3-4千/月,3.5,天津市西青区卫津南路王兰庄丰田4S店身后,西青区,117.203966,39.048767
李斯特技术中心（上海）有限公司,仓库管理员,仓库管理员,4-6千/月,5,天津市开发区西区新业五街8号,滨海新区,,
天津圣象家居有限公司,调度员,调度员,3-4.5千/月,3.75,天津东丽区,东丽区,117.320568,39.092332
天津山远石油工具有限公司,仓库管理员,仓库管理员,4.5-6千/月,5.25,汊沽港镇京津科技谷福发路29号（中石油加油站对过）,武清区,116.945024,39.262519
华润五丰农产品（深圳）有限公司,仓库管理员,仓库管理员,3-4.5千/月,3.75,海泰国际公寓2522,西青区,117.135758,39.102326
天津圣纳科技有限公司,仓库管理员,仓库管理员,3-4.5千/月,3.75,南开大学,南开区,117.175215,39.109359
广州合盛物流有限公司,仓库管理员,仓库管理员,4.5-5.5千/月,5,辛口镇传化物流园,西青区,,
阿滨仪器（天津）有限公司,仓库管理员,仓库管理员,2-3千/月,2.5,天津市北辰区天穆工业园柳滩工业区天永道7号,北辰区,117.155875,39.198397
天津市顺超有限公司,仓库主管,仓库主管,3-4.5千/月,3.75,辛口工业园,西青区,116.977738,39.088298
鲜生活冷链物流有限公司,现场调度,调度员,2-3千/月,2.5,定州市定州伊利乳业有限公司,定州市,115.025534,38.593846
湖北迈睿达供应链股份有限公司,仓库经理（天津）,仓库经理,5-8千/月,6.5,经济开发区西区南大街,宝坻区,117.551911,39.078502
睦邻企业管理服务（北京）有限公司,车辆调度员,调度员,4.5-6千/月,5.25,天津蓝玺冷链物流公司,河北区,117.182376,39.249483
天津柯瑞祥机电设备有限公司,仓库管理员,仓库管理员,2-4千/月,3,天津市津南区海河教育园区,津南区,117.383883,39.02407
北京玖程龙禹科贸有限公司,仓库理货员,理货员,3-4.5千/月,3.75,大碱厂南辛庄（天津玖程龙禹科技有限公司),武清区,117.091679,39.440928
天津开发区泰达保温材料有限公司,仓库管理文员,仓库管理员,4-4.8千/月,4.4,天津经济技术开发区现代产业区翠薇街6号,滨海新区,117.785589,39.221351
品渥食品股份有限公司,仓库主管,仓库主管,6-8千/月,7,天津市武清区天津新技术产业园区武清开发区翠源道2号（普洛斯武清现代服务产业园）,武清区,,
中铁现代物流科技股份有限公司天津分公司,物流专员,仓库管理员,3-4千/月,3.5,经济技术开发区,滨海新区,117.715311,39.033792
北京航空食品有限公司天津分公司,库房管理员(职位编号：002),仓库管理员,3-3.5千/月,3.25,东丽区机场西区二号路6号,东丽区,117.312597,39.147195
北京丽阳虹科技有限公司,仓库管理员,仓库管理员,3-4.5千/月,3.75,五经路16号8号楼3层,河北区,117.208826,39.139848
上海艾杰飞人力资源有限公司,日企仓管经理(编号106783),仓库经理,7.7-9.7千/月,8.7,天津,河北区,117.205914,39.090908
天津振坤嘉盛焊接材料有限公司,仓库管理员,仓库管理员,3-4.5千/月,3.75,宁河经济开发区三经路与十二纬路交口区域第一段,宁河县,,
常州市上锐工业紧固件有限公司,备货员（天津）,仓库管理员,4-6千/月,5,天津市武清开发区发达路6号第2号厂房,武清区,117.060979,39.406467
天津鸿宝祥食品科技有限公司,仓库管理员,仓库管理员,3-4千/月,3.5,南开三马路37号中关村E谷316祥禾饽饽铺,南开区,117.179973,39.141106
常州市上锐工业紧固件有限公司,叉车理货员（天津）,理货员,4-6千/月,5,天津市武清开发区发达路6号第2号厂房,武清区,117.060979,39.406467
花点时间,仓库管理员,仓库管理员,4-6千/月,5,福源道奥克斯电器,武清区,117.069003,39.385057
瑞康医药（天津）有限公司,仓库管理员2,仓库管理员,3-4.5千/月,3.75,大港区大港油田二号院,滨海新区,117.51658,38.746633
通力电梯有限公司天津分公司,仓库管理员,仓库管理员,3-4.5千/月,3.75,天津市和平区西康路与成都道交口 赛顿中心C座12层04单元,和平区,117.198747,39.112645
天津欧乐时尚企业管理有限公司,资产主管,仓库主管,4-5千/月,4.5,天津市和平区滨江道300号,和平区,117.202683,39.126674
康师傅杭州顶园食品有限公司,调度员,调度员,4.5-6千/月,5.25,洞庭路161号,河西区,117.699203,39.07216
天津威图电气设备有限公司,仓库管理员,仓库管理员,4-4.5千/月,4.25,天津市西青区中北工业园北园11号院,西青区,117.077398,39.151409
天津科维津宏环保科技有限公司,仓库主管,仓库主管,5-7千/月,6,河北津宏化工有限公司,河北区,118.191083,39.243521
般德阀门科技有限公司,仓库主管,仓库主管,4.5-6千/月,5.25,北闸口普惠道37号,津南区,117.413837,38.960926
天津棕森园林景观工程有限公司,库管,仓库管理员,4-6千/月,5,空港经济区空港商务园西区W2-301,东丽区,117.391696,39.166644
天津市滨涛混凝土有限公司,生产调度,调度员,3-4.5千/月,3.75,天津市河北区建昌道59号,河北区,117.233913,39.182052
雷可德高分子（天津）有限公司,仓库主管,仓库主管,1.5千以下/月,#DIV/0!,汉沽现代产业区碧波街28号,滨海新区,117.784815,39.216841
天津东疆港大冷链商品交易市场有限公司,现场调度,调度员,3-3.5千/月,3.25,东疆保税港区邯郸道601号,滨海新区,,
天津市多彩晟嘉包装技术发展有限公司,库管员,仓库管理员,3.5-5千/月,4.25,天津医药医疗器械工业园内,北辰区,117.035994,39.238479
天津柯瑞祥机电设备有限公司,仓库文员,仓库管理员,2.5-4千/月,3.25,天津市津南区海河教育园区,津南区,117.383883,39.02407
上海航利实业有限公司,驻厂仓库管理员,仓库管理员,3-4.5千/月,3.75,九园工业区兴运道1号,北辰区,117.424152,39.458753
天津市通洁高压泵制造有限公司,仓库管理员,仓库管理员,3-4.5千/月,3.75,赛达工业园兴华二支路与宏源道交口,西青区,117.239009,39.013829
天津兰贝信息科技有限公司,仓库管理员,仓库管理员,1.5千以下/月,#DIV/0!,天津市西青区西青道315号金盛工业园增3号,西青区,117.0511,39.153415
天津市中天泰德机电设备制造有限公司,仓库管理员,仓库管理员,3-3.5千/月,3.25,中北工业园三星路六号,西青区,117.074146,39.111783
江苏飞力达国际物流股份有限公司,仓管员,仓库管理员,2-3千/月,2.5,北京密云,#N/A,116.849716,40.382129
正元盛邦(天津)生物科技有限公司,仓库管理员,仓库管理员,3-4.5千/月,3.75,天津开发区洞庭路220号天津市国际生物医药联合研究院9层,滨海新区,117.709845,39.087177
杭州诺贝尔陶瓷有限公司,急急急  诚聘调度员,调度员,3.5-4千/月,3.75,河西区解放南路473号环渤海建材大厦910,河西区,117.240147,39.076783
般德阀门科技有限公司,仓库保管员,仓库管理员,5-5.5千/月,5.25,北闸口普惠道37号,津南区,117.413837,38.960926
国能瀚威集团有限公司,调度员,调度员,4.5-6千/月,5.25,南京路75号国际大厦2510,和平区,117.215491,39.122174
纳通医疗集团,物流专员,仓库管理员,4.5-6千/月,5.25,天津市空港经济区经一路318号,东丽区,117.442577,39.113701
天津大富班尼路服饰有限公司,店铺货品管理员（耐克店）,仓库管理员,2.3-4.6千/月,3.45,天津市和平区滨江道282号,和平区,117.203501,39.12756
弗玛仓储（太仓）有限公司,班长,仓库管理员,4.5-6千/月,5.25,杨柳青,西青区,117.021445,39.13467
天津狮桥国际物流有限公司,物流专员（天津）,仓库管理员,4-6千/月,5,滨海新区金蕴道与融义路口华夏金融中心,东丽区,117.689459,39.003195
天津中车风电叶片工程有限公司,仓库主管,仓库主管,6-8千/月,7,天津北辰区高新大道81号,北辰区,117.288714,39.245979
天津进口商品中心有限公司,进口商品库管/仓库管理员,仓库管理员,2-4千/月,3,天津市和平区大理道68号北方国际集团大厦天津进口商品中心,和平区,,
天津市茂联科技有限公司,仓库管理员,仓库管理员,3-4.5千/月,3.75,天津市经济技术开发区南港工业区富港路9号,滨海新区,,
天津滨海新区兰德食品有限公司,仓库管理员,仓库管理员,3-4千/月,3.5,大港区轻纺经济区纺缘路199号,滨海新区,117.538325,38.841894
天津丰铁汽车部件有限公司,设备管理员,仓库管理员,4-4.5千/月,4.25,天津市北辰区津围公路北辰科技园高新大道45号（地铁3号线小淀方向华北集团站）,北辰区,117.234042,39.233704
天津贝克电气有限公司,库管员,仓库管理员,3-4千/月,3.5,空港经济区中环西路368号,东丽区,117.405772,39.13219
天津中车风电叶片工程有限公司,仓库管理员,仓库管理员,4-6千/月,5,天津北辰区高新大道81号,北辰区,117.288714,39.245979
跨越速运集团有限公司,调度员（夜班）,调度员,4.5-6千/月,5.25,石家庄裕华区经济技术开发区仰伶红馆商务广场A座,裕华区,,
中外运化工国际物流有限公司,仓储客服（汉沽）,仓库管理员,3-4.5千/月,3.75,汉沽区现代产业园瑶山路6号,滨海新区,117.798721,39.221708
天津旭丰和电子股份有限公司,资材担当,仓库管理员,3-5千/月,4,宜兴埠镇宜兴埠工业园区（近华盛道）,北辰区,,
天津比德文科技有限公司,仓管员/库管,仓库管理员,3.5-6千/月,4.75,天津北辰青光,北辰区,117.066273,39.202777
鲜生活冷链物流有限公司,夜班调度,调度员,3-4.5千/月,3.75,杨村镇开发区,武清区,117.07539,39.409269
天津弘方化妆品有限公司,库管,仓库管理员,3-4.5千/月,3.75,卫国道高等教育出版社,河东区,117.291384,39.153159
硕方电子（天津）有限公司,库房主管,仓库主管,4.5-6千/月,5.25,天津河东区新开路万春美钻大厦3楼301室,河东区,117.220317,39.150259
天津市一广人力资源服务有限公司,五金建材 库管,仓库管理员,4.5-7.5千/月,6,华苑,宝坻区,117.135027,39.093449
天津奥尔森物流有限公司,仓库管理员,仓库管理员,3-4.5千/月,3.75,大港区中港路天津奥尔森物流有限公司,滨海新区,117.422921,38.847621
德迅（中国）货运代理有限公司天津分公司,仓库客户服务（北辰宏鹏工业园）,仓库管理员,4-6千/月,5,经济开发区双辰西路宏鹏工业区B区,北辰区,117.12267,39.281039
天津易蔓糖生物科技有限公司,仓库助理,仓库管理员,3.5-4.5千/月,4,天津市津南双港开发区鑫港一号路2号,津南区,117.317125,39.03339
天津恒丰达塑业股份有限公司,仓库文员,仓库管理员,3-4.5千/月,3.75,小淀镇刘安庄工业区兴安路,北辰区,117.234173,39.232649
北京超思电子技术有限责任公司,仓库管理员,仓库管理员,2-4千/月,3,开发区源泉路17号红日技术转化中心,河北区,117.076433,39.405037
东葛树脂（天津）有限公司,仓库管理员,仓库管理员,2-3千/月,2.5,天津新技术产业园区（环外区）海泰东路6号,西青区,117.109884,39.092515
天津德普威涂料有限公司,库房文员,仓库管理员,3-4.5千/月,3.75,武清区富民开发区C区一经路8号,武清区,117.099873,39.321614
天津鸿宝祥食品科技有限公司,仓库管理员,仓库管理员,3-4千/月,3.5,北辰区,北辰区,117.141401,39.230342
上海华运通仓储配送有限公司,调度员,调度员,4-4.5千/月,4.25,大寺镇泉集北里1号楼1单元202,西青区,117.219749,39.017104
宁波中翔物流有限公司,仓库管理员,仓库管理员,3.5-5千/月,4.25,一汽大众汽车工业园区内,河北区,,
西藏正康药业有限公司,收发货员,搬运工,3-4.5千/月,3.75,天津市武清区泉明路东50米,武清区,117.042427,39.458087
上海津卫塑胶颜料有限公司,仓库管理员,仓库管理员,3-4.5千/月,3.75,北辰区西堤头,北辰区,117.359999,39.260593
德迅（中国）货运代理有限公司北京分公司,仓库客服（天津北辰）,仓库管理员,4-4.5千/月,4.25,北辰经济开发区双辰西路宏鹏工业园B区,北辰区,117.12267,39.281039
天津诺镁轻合金科技有限公司,五金仓库物管,仓库管理员,3-4.5千/月,3.75,天津静海经济开发区南区泰安道与爱玛路交口向东100米 （天津富士达科技有限公司）,静海县,116.988208,38.890257
美克家居-美克美家/A.R.T/YVVY/ZEST,库管/商品管理[天津],仓库管理员,5-7千/月,6,解放南路483号美克美家,河西区,117.239655,39.07155
上海华运通仓储配送有限公司,现场业务员,搬运工,4-4.5千/月,4.25,大寺镇泉集北里1号楼1单元202,西青区,117.219749,39.017104
天津市仁和办公设备有限公司,仓库助理,仓库管理员,3-4.5千/月,3.75,鞍山西道时代公寓B401,南开区,117.162932,39.118733
蓝海宏业（天津）物流有限公司,装卸工,搬运工,4.5-6千/月,5.25,津围公路北北辰科技园景丽路39号蓝海宏业物流,北辰区,117.237766,39.235437
上海和兆服饰有限公司,仓库管理员,仓库管理员,5-7千/月,6,天津仓库,河北区,117.259845,39.098743
沈阳递家物流股份有限公司,物流调度,调度员,4-6千/月,5,天津,河北区,117.20952,39.093669
天津市仁合峻成科技发展有限公司,仓库管理员,仓库管理员,3-4.5千/月,3.75,赛达国际工业城,西青区,117.232225,38.978035
天津永祥物流有限公司,运输调度,调度员,4-6千/月,5,天津市滨海新区跃进路航运贸易大厦5号楼2103室-1,滨海新区,117.747244,39.03101
天津市康尔医疗器械有限公司,仓库管理员,仓库管理员,2-3千/月,2.5,大碱厂镇国泰道,武清区,117.093692,39.480512
天津市叁零叁建材有限公司,储运主管,仓库主管,4-6千/月,5,西青区大明道与外环线交口,西青区,117.115466,39.16921
天津皓硕金属制品有限公司,仓库管理员,仓库管理员,3-4.5千/月,3.75,天津市静海区陈官屯镇陈大路18号,静海县,,
广东元宝食品有限公司,仓库文员,仓库管理员,3-4千/月,3.5,广东省南沙区东涌镇天益大道1号,番禺区,113.451514,22.875917
深圳市奥丁格啤酒销售有限公司,外派调度专员（上海+天津）,调度员,5-6千/月,5.5,天津北辰区西堤头镇陆港一纬路9号,北辰区,117.331263,39.246624
兆航物流南北二区,叉车司机,调度员,3.5-3.8千/月,3.65,空港经济区经一路与玮十路交口中国移动华北大区物流中心,东丽区,117.439151,39.111877
兆航物流南北二区,仓库管理员,仓库管理员,3.5-3.8千/月,3.65,空港经济区经一路与玮十路交口中国移动华北大区物流中心,东丽区,117.439151,39.111877
天津新伟祥工业有限公司,资材部事务员,仓库管理员,4.5-6千/月,5.25,上马台开发区金发路2号,武清区,117.268561,39.396935
天津华德瑞宝国际贸易有限公司,电商库管,仓库管理员,3.5-5千/月,4.25,乐园道2号乐园大厦12楼A座,河西区,117.226104,39.097694
瑞达南洋（天津）机电设备安装有限公司,仓库文员,仓库管理员,3-4.5千/月,3.75,中新生态城,滨海新区,117.747772,39.129275
天纳克富晟（天津）汽车零部件有限公司,仓库管理员,仓库管理员,3-4.5千/月,3.75,天津市宁河区北淮淀乡南淮淀村一汽大众华北基地内,宁河县,117.579344,39.245277
中联信达（天津）科技发展有限公司,库管员,仓库管理员,3-5千/月,4,九园工业园区北环路9号,宝坻区,117.442932,39.452602
天津凯德实业有限公司,仓库管理员,仓库管理员,2-3千/月,2.5,天津市空港经济区保税路350号,东丽区,117.399334,39.137449
天津捷众汽车销售有限公司,库管员,仓库管理员,3-4.5千/月,3.75,天津静海经济开发区金海道与金文路交口一汽大众4s店,静海县,116.968401,38.93821
伍尔特(天津)电子有限公司,仓库管理员,仓库管理员,3-4千/月,3.5,天津市华苑产业园区（环外）海泰发展六道7号,西青区,117.132339,39.092862
天津塘沽瓦特斯阀门有限公司,仓库管理员,仓库管理员,3-4千/月,3.5,天津塘沽区金江路1999号,滨海新区,117.678116,39.065689
天津信嘉诚科技有限公司,招聘物流实习生,仓库管理员,3-4.5千/月,3.75,塘沽第九大街,滨海新区,117.656946,39.076957
天津信嘉诚科技有限公司,招聘库管,仓库管理员,4.5-6千/月,5.25,天津塘沽开发区第九大街,滨海新区,117.69915,39.071124
天津市捷士通科技有限公司,仓库管理员,仓库管理员,4.5-6千/月,5.25,中关村可信产业园,北辰区,117.125596,39.285478
天津市博业医药有限公司,库房管理员,仓库管理员,3-4.5千/月,3.75,.,河北区,,
上海无忧供应链管理有限公司,仓库管理员,仓库管理员,3-4.5千/月,3.75,天津市北辰区高新大道景观路青年公寓412号,北辰区,,
上海无忧供应链管理有限公司,仓库调度,调度员,4.5-6千/月,5.25,天津市北辰区高新大道景观路青年公寓412号,北辰区,,
上海无忧供应链管理有限公司,仓库主管,仓库主管,5.5-6千/月,5.75,天津市北辰区高新大道景观路青年公寓412号,北辰区,117.254634,39.240318
安得智联科技股份有限公司,仓库管理员(职位编号：001),仓库管理员,3-4.5千/月,3.75,天津市北辰区陆路港物流装备产业园区天津美安物流园,北辰区,,
天津扬天科技有限公司,仓库管理员,仓库管理员,3-4.5千/月,3.75,金坪路10号,河北区,117.141817,39.124532
天津信鸿医疗科技股份有限公司,仓库管理员,仓库管理员,3-4.5千/月,3.75,东丽区华明低碳产业基地B2座三层,东丽区,117.358755,39.174626
安得智联科技股份有限公司,配送员(职位编号：003),调度员,3-4.5千/月,3.75,北辰区陆路港物流装备产业园区天津美安物流园,北辰区,,
西安源森生物科技有限公司,仓储主管,仓库主管,6-8千/月,7,天津市滨海高新区滨海科技园康泰大道59号  天津九州通绿谷健康产业园17号楼,东丽区,117.512316,39.142011
中施柯朗（天津）污泥治理处理工程股份有限公司,库房管理员兼接待员,仓库管理员,3-4.5千/月,3.75,天津市静海县开发区广海道华夏科技园4排9号10号,静海县,117.01208,38.944911
天津弘方化妆品有限公司,库管,仓库管理员,3-4.5千/月,3.75,东丽区新中村闽中路邮局院内2号库,东丽区,,
浩群（天津）工程科技发展有限公司,仓库管理员,仓库管理员,2.5-4.5千/月,3.5,天津市西青区大寺微电子工业园中晓园8-C,西青区,117.240689,39.007537
嘉里大通物流有限公司天津分公司,车辆调度,调度员,3-4.5千/月,3.75,卫国道204号高等教育出版社院内,东丽区,,
天津市佑N医药科技有限公司,仓库管理员,仓库管理员,6-8千/月,7,华苑鑫茂科技园A座H单元三层,西青区,117.129207,39.092276
赛闻（天津）工业有限公司,库房主管（武清）,仓库主管,6-8千/月,7,大良镇旗良路1号,武清区,117.107383,39.538993
埃克森（天津）实业集团有限公司,仓库管理员,仓库管理员,4-6千/月,5,天津市武清区崔黄口镇电子商务产业园兴广路1号,武清区,117.169976,39.527598
天津快客利食品科技咨询有限公司,库管,仓库管理员,3-4千/月,3.5,天津市各行政区域内,河北区,117.04929,39.55954
华众控股有限公司,物流主管,物流主管,4-6千/月,5,天津市宁河区现代工业产业园内,宁河县,,
天津中润易达物流有限公司,运输经理,运输经理,6-8千/月,7,开发区第十大街与渤海路交口，普洛斯泰达物流园B2-1,滨海新区,117.692345,39.078608
华劳（天津）人力资源有限公司,海运 陆运主管,运输主管,4.5-6千/月,5.25,惠农何滨工业园区钢电南路43号,河北区,106.78921,39.305658
天津九谦物流有限公司,物流专员,物流专员,3-4.5千/月,3.75,天津市东丽区保税区空港国际物流经济区航空路152号天津九谦物流有限公司,东丽区,,
友昌集团,仓库文员,仓库管理员,3-4.5千/月,3.75,天津市武清区天津市武清区京滨工业园民旺道11号,武清区,116.834369,39.560609
江苏天合国际物流有限公司,现场监管员,仓库管理员,5-8千/月,6.5,天津市滨海新区塘沽新港四号路北 中储发展股份有限公司天津新港分公司内现场办公,东丽区,,
天津金域医学检验所有限公司,物流专员（塘沽，自带车）,物流专员,3-4.5千/月,3.75,天津市华苑产业园区桂苑路18号,西青区,117.131633,39.096808
大连联航集运船务代理有限公司天津一分公司,分公司经理,物流经理,6-8千/月,7,天津市和平区大沽北路65号，金融中心-汇金中心2302,和平区,117.211245,39.135083
天津苏宁易购销售有限公司,物流运营岗（1200工程2019校招）,物流专员,5-7千/月,6,天津,河北区,117.205914,39.090908
深圳市中海通物流股份有限公司,货代资源专员,物流专员,4.5-6千/月,5.25,深圳市南山区海德二路茂业时代广场19楼,南山区,113.93685,22.52479
同方环球（天津）物流有限公司,物流担当（非日语）,物流专员,4.5-6千/月,5.25,经济技术开发区泰达服务外包产业园2号楼3层,滨海新区,117.736748,39.048355
天津瑞应鑫模具制造有限公司,物流科长,物流专员,6-8千/月,7,天津市武清区杨村镇兴旺路16号,武清区,117.061958,39.398108
博士伦（上海）贸易有限公司浙江经销商,配送员,物流专员,3-4千/月,3.5,南门外大街世纪花园,南开区,117.186529,39.137608
洋浦佳易物流有限公司,业务助理,物流助理,3-4.5千/月,3.75,新港二号路,滨海新区,117.788591,38.987173
箱信（天津）国际货运代理有限公司,堆场操作（塘沽+五险一金+双休）,物流专员,3.5-5千/月,4.25,京门大道188号,滨海新区,117.767087,39.020467
天津锦泰物流有限公司,物流助理,物流助理,3-4.5千/月,3.75,东二道盛誉商务大厦412室,东丽区,117.403598,39.164691
上海乐高船务有限公司天津分公司,海运操作 实习生,物流专员,2-3千/月,2.5,大沽南路501号恒华大厦2号楼1509室,河西区,117.230606,39.110625
日邮振华物流（天津）有限公司,单据员/物流专员,物流专员,2-4千/月,3,天津经济技术开发区海通街46号,滨海新区,117.744172,39.066923
天津宜家家居有限公司,年轻继任者（物流部）/ Young Potential(Logistics),物流专员,4-6千/月,5,津塘公路433号（轻轨9号线东丽开发区站旁）,东丽区,117.685607,39.035405
天津信志达物流有限公司,铁海联运主管,运输主管,6-8千/月,7,天津市河西区吴家窑大街与卫津南路交口中海广场1907,河西区,,
天津市粹品汇食品销售有限公司,仓储物流主管,物流主管,4-8千/月,6,密云路一商茶中心,南开区,117.128042,39.144326
鱼酷餐饮连锁管理有限公司,物流统计专员,物流专员,4.5-6千/月,5.25,天津市北辰区陆路港一纬路9号 中储物流园办公楼,北辰区,117.343713,39.259662
德诚捷运（天津）国际物流有限公司,操作,物流专员,3-4.5千/月,3.75,津港路贻航国际大厦5-510,滨海新区,117.747344,39.031402
嘉思特华剑医疗器材（天津）有限公司,车间物流助理,物流助理,3-4千/月,3.5,南开区资阳路27号,南开区,117.140592,39.122573
豪恩物流(天津)有限公司,物流专员,物流专员,3-4.5千/月,3.75,天津市新产业园区花园产业区（环外）海泰发展五道16号B8-2-202,西青区,117.107177,39.086572
上海得斯威物流有限公司,仓库主管-天津,仓库主管,5-9.9千/月,7.45,空港经济区综合保税区启航路21号二楼仓库,东丽区,117.420079,39.160424
天津市兆阳国际货运代理有限公司,跨境电商专员,物流专员,3-4.5千/月,3.75,东疆保税港区洛阳道海丰仓库,滨海新区,117.814373,39.010395
天津市信基科技有限公司,货运代理专员,物流专员,5-8千/月,6.5,航双路空港国际总部基地A区A6-4层4028室,东丽区,117.34032,39.120084
华润五丰农产品（深圳）有限公司,仓库管理员,仓库管理员,3-4.5千/月,3.75,海泰国际公寓2522,西青区,117.135758,39.102326
天津同源国际货运代理有限公司,业务员,物流专员,3.5-6千/月,4.75,大沽南路与利民道交口澳景大厦2门802,河西区,117.230536,39.104814
天津世尊进出口贸易有限公司,物流专员/提供食宿 双休 绩效奖金,物流专员,4.5-6千/月,5.25,滨海新区,滨海新区,117.717131,39.009456
跨越速运集团有限公司,市场助理（华明）,物流助理,6-8千/月,7,天津市东丽区华明高新区华丰路6号A3号楼B201室,东丽区,117.358613,39.17474
紫梧桐（北京）资产管理有限公司,物流专员,物流专员,4.5-5千/月,4.75,海河东路茂业大厦1202,河北区,117.210704,39.138895
上海远茂企业发展股份有限公司,物流现场管理员,物流专员,5-7千/月,6,空港加工区西二道7号,东丽区,117.380733,39.159564
天津泰士康医疗科技有限公司,仓储物流经理,物流经理,5-7千/月,6,天宇科技园泰安道17号  天津民祥药业有限公司,静海县,116.987705,38.887267
斯伦贝谢中国公司,实习生-物流协调员,物流专员,2-4千/月,3,业盛道建福路8号,西青区,117.220741,39.02722
四川物联亿达科技有限公司,运作主管,物流主管,4.5-6千/月,5.25,天津市,河北区,117.20952,39.093669
云量子供应链管理有限公司,项目经理助理,物流经理,4-7千/月,5.5,天津市武清区东马圈镇,武清区,116.848546,39.454592
上海富友金融服务集团股份有限公司,收件宝运营专员,物流专员,6-8千/月,7,天津,河北区,117.20952,39.093669
上海速越物流有限公司,物流现场操作员,物流专员,4.5-6千/月,5.25,金钟街道,东丽区,117.278973,39.208893
天津科维津宏环保科技有限公司,采购专员,物流专员,3-5千/月,4,医药医疗器械工业园富雅路3号,河东区,117.029682,39.235736
天津蓝储国际物流有限公司,物流专员,物流专员,3-6千/月,4.5,天津市东丽区华明镇北于堡工业区蓝储物流,东丽区,,
天津市仁和办公设备有限公司,仓库助理,物流助理,3-4.5千/月,3.75,鞍山西道时代公寓B401,南开区,117.162932,39.118733
天津五杰物流有限公司,港口外勤/港口调度,调度员,3-4.5千/月,3.75,天津经济技术开发区第三大街豪威大厦B-804,滨海新区,117.692801,39.042636
上海优尔蓝信息科技股份有限公司天津分公司,急聘物流理货质检包装,物流专员,4.5-6千/月,5.25,大王古京滨工业园,武清区,116.832376,39.565863
骏高国际货运（中国）有限公司天津分公司,快递发展经理/副经理/主管（天津）,物流经理,6-8千/月,7,天津市河西区大沽南路恒华大厦,河西区,117.230606,39.110625
博奥赛斯（天津）生物科技有限公司,物流专员,物流专员,2-4千/月,3,东丽开发区四纬路10号,东丽区,117.357005,39.072024
国药集团（天津）医疗器械有限公司,仓库管理员,仓库管理员,2-4千/月,3,富源北路8号,北辰区,117.031882,39.23554
锦海捷亚国际货运有限公司,空海运进口主管,运输主管,5-8千/月,6.5,十一经路,河东区,117.238302,39.136352
上海中智医疗器械有限公司,仓库管理员,仓库管理员,3-4.5千/月,3.75,天津,河北区,,
宏图物流股份有限公司,运营专员,物流专员,3-5千/月,4,金融街中心21楼,南开区,117.180359,39.128345
深圳市海陆川物流有限公司,营销总经理助理,物流经理,4.5-6千/月,5.25,天津市滨海新区响螺湾浙商大厦A座2212室,滨海新区,117.672822,39.006566
嘉里粮油（天津）有限公司,运输调度,调度员,3-4.5千/月,3.75,宁河现代产业园海航东路华康物流园3号库,宁河县,,
基伊埃工程技术（中国）有限公司,Logistics specialist,物流专员,6.5-7.5千/月,7,武清开发区泉达路8号,武清区,117.053689,39.411748
速尔物流有限公司,运营专员,物流专员,4-5千/月,4.5,天津市东丽区新立街驯海路天纺物流园内,东丽区,117.352165,39.102354
天津瀚诺威国际物流有限公司,CSR/物流操作客户专员（全职/接收应届）,物流专员,3-4.5千/月,3.75,临港经济区,河北区,117.722029,38.962197
杭州蓝豚供应链管理有限公司,物流仓储主管,仓库主管,6-8千/月,7,安平物流园,河北区,117.361905,38.971014
TCL速必达希杰物流有限公司,物流专员/仓储专员,物流专员,4.5-6千/月,5.25,北辰区京宝工业园京宝路8号A幢1号(原中乾钢材市场院内),北辰区,117.089829,39.235501
先达国际货运（上海）有限公司,销售助理 / 客服,物流助理,5-6千/月,5.5,天津市和平区西康路赛顿中心C座1605室,和平区,117.198747,39.112645
广州威时沛运集团有限公司,运营经理,物流经理,6-8千/月,7,天津市滨海新区响螺湾中船重工大厦6层,滨海新区,117.673533,39.003467
上海无忧供应链管理有限公司,仓库主管,仓库主管,5.5-6千/月,5.75,西青,西青区,117.014408,39.148727
北京映急物流有限公司,分公司经理（天津）,物流经理,6-8千/月,7,富民路118号,河东区,117.267335,39.104862
上海的卢供应链管理有限公司,仓库主管,仓库主管,6-8千/月,7,大王古庄镇镇政府南侧津武锅炉厂内6号仓库,武清区,116.832704,39.577081
天津晚稻工坊科技有限公司,3D游戏设计助理岗可零基础,物流助理,6-8千/月,7,南马路创新大厦A座26层,和平区,117.195558,39.141878
纳通医疗集团,物流专员,物流专员,4.5-6千/月,5.25,天津市空港经济区经一路318号,东丽区,117.442577,39.113701
天津特思博国际货运代理有限公司,文员,物流专员,3-4.5千/月,3.75,东马路129号仁恒置地国际中心写字楼23层,南开区,117.197254,39.144689
广东怀远物流实业有限公司,现场管理员,物流专员,3-4.5千/月,3.75,天津市西青经济开发区赛达一经路61号,西青区,117.229833,39.024469
恒银金融科技股份有限公司,商务专员,物流专员,4-6千/月,5,天津自贸区空港经济区西八道30号,东丽区,117.420079,39.160424
天地华宇集团,西青天地华宇招聘物流业务客服,物流专员,3-4.5千/月,3.75,西青区杨柳青镇兴达物流园,西青区,117.043577,39.158887
天津红日爱乐意药用辅料有限公司,物流经理,物流经理,6-8千/月,7,天津市南开区榕苑路9号,西青区,117.129245,39.096271
天津永顺丰国际物流有限公司,物流操作员,物流专员,3-4.5千/月,3.75,海尔路180号大荣中心A座802室,津南区,120.461657,36.111408
天津百特国际货运代理有限公司,进出口 专员 操作员,物流专员,2.5-4千/月,3.25,张自忠路240号港湾中心1009,和平区,117.218462,39.135883
华南日通国际物流（深圳）有限公司广州分公司,品质安全担当,物流专员,3-4.5千/月,3.75,天津市开发区普洛斯物流园,西青区,117.693967,39.080216
高能智核环保科技有限公司,仓库物流主管,物流主管,6-8千/月,7,天津市滨海高新区滨海科技园高新三路120号,东丽区,,
天狮集团有限公司,物流管理专员(J10279),物流专员,3-4千/月,3.5,天津市武清开发区新源道18号天狮国际健康产业园,武清区,117.02486,39.437302
花点时间,物流主管,物流主管,6-8千/月,7,福源道奥克斯电器,武清区,117.069003,39.385057
旗锋国际货运（上海）有限公司,物流实习生,物流专员,1.6-2.5千/月,2.05,南京路39号 天津国际贸易中心A座15楼1510-1511,河西区,117.223143,39.119809
天津市黑金刚食品有限公司,物流专员,物流专员,3-4.5千/月,3.75,天津市滨海新区大港太平镇大道口黑金刚食品有限公司,滨海新区,117.302825,38.62037
沈阳递家物流股份有限公司,物流调度,调度员,4-5千/月,4.5,天津,河北区,117.20952,39.093669
东方海外物流（中国）有限公司,客服操作助理,物流助理,4.5-6千/月,5.25,天津港保税区新港大道101号,滨海新区,117.773542,39.011102
东方先导糖酒有限公司,物流专员,物流专员,3-4.5千/月,3.75,友谊大厦,河西区,117.218085,39.08461
天津格鲁伯企业管理咨询有限公司,物流专员,物流专员,3-4.5千/月,3.75,塘沽,滨海新区,117.667631,39.035228
天津泽元信息技术有限公司,司机运营主管,仓库主管,4.5-6千/月,5.25,大港轻纺经济区轻一街1113号（元顺物流）,滨海新区,117.728939,39.051035
利丰供应链管理（中国）有限公司,仓库主管（西青）,仓库主管,5-8千/月,6.5,天津市西青区经济技术开发区天源道11号普菱物流园,西青区,,
北京恒诚易达物流有限公司,天津东丽物流客服,物流专员,3-4千/月,3.5,机场周边,河北区,117.327105,38.571357
北京卡讵人才服务有限公司,国际物流部系长,物流专员,4.5-7千/月,5.75,经济技术开发区,滨海新区,117.715311,39.033792
弗玛仓储（太仓）有限公司,系统操作员,物流专员,3.5-5.5千/月,4.5,天津武清开发区翠源道北侧普洛斯武清现代服务产业园,武清区,117.066309,39.424679
广东东源新地股份有限公司,诚招物流商务专员,物流专员,4-4.5千/月,4.25,天津市北辰区万科新城花园东区紫芸苑2号楼104室,北辰区,117.215673,39.214991
天津宝涞精工集团股份有限公司,库管文员（宝坻区）,物流专员,2-4千/月,3,天津市宝坻区牛家牌镇福顺路8号,宝坻区,117.298269,39.533585
嘉里大通物流有限公司天津分公司,运输助理,物流助理,3-4.5千/月,3.75,卫国道204号高等教育出版社院内,东丽区,117.290999,39.153426
天津艾丝碧西餐饮管理有限公司,物流统计（巴黎贝甜西青工厂）,物流专员,4.5-6千/月,5.25,兴华四支路10号,西青区,,
凌岛（天津）建筑设计咨询有限公司,物流专员/经验不限,物流专员,4.5-6千/月,5.25,天津市滨海新区,滨海新区,117.717395,39.009416
武汉鑫麟杰商贸有限公司,物流专员,物流专员,4.5-6千/月,5.25,河东区,河东区,117.258413,39.134487
天津信和天成科技有限公司,仓管/物流助理 4500+ 双休,物流助理,4.5-6千/月,5.25,浩物大厦,东丽区,117.379435,39.164488
圆通速递有限公司,营销专员,物流专员,4-6千/月,5,天津市东丽区机场货运路第二大街圆通速递有限公司,东丽区,117.337429,39.142718
天津大田储运有限公司,驻厂操作员,物流专员,3.5-4千/月,3.75,空港开发区名富物流,河北区,117.452978,39.134757
天津顶立酒业有限公司,物流打包员,物流专员,3-4.5千/月,3.75,天津市滨海新区塘沽欧美小镇四期1365号,滨海新区,117.67702,39.055368
天津海铁联捷国际物流有限公司,物流现场操作,物流专员,3-4.5千/月,3.75,天津市和平区兴安路环球金融中心1613室,和平区,117.198891,39.13951
青海聚能s度饮料股份有限公司,物流专员,物流专员,4.5-6千/月,5.25,南开区长江道与南丰路交口宝利国际广场7F,南开区,,
天津晟亚国际物流有限公司,进出口业务操作,物流专员,4-6千/月,5,天津开发区第三大街51号金融街西区8-A-310室,滨海新区,117.757176,39.219619
松美可（天津）汽车配件有限公司,生管担当,物流专员,4.5-6千/月,5.25,宏源道7号,西青区,117.248234,39.017334
黑龙江飞鹤乳业有限公司,物流运营专员,物流专员,3-5千/月,4,天津市北辰区,北辰区,117.141401,39.230342
青岛中优德惠文化交流咨询有限公司,欧美互惠生文化交流项目 让你开阔眼界 提升英语,物流经理,6-8千/月,7,宁夏路,和平区,120.429541,36.071731
瑞尔国际物流（北京）有限公司,清关客服,物流专员,4.5-6千/月,5.25,天津市南开区南开三马路37号中关村E谷(南开)创想世界五层500室,南开区,117.179908,39.141685
唯品会（中国）有限公司,防损主管（稽核方向）,物流主管,5-7千/月,6,崔黄口镇电子商务产业园宏达道20号,武清区,117.182463,39.522683
天津雨沐坤健商贸有限公司,物流操作员/物流专员,物流专员,4-5千/月,4.5,天津,河北区,117.209523,39.093668
孩子王儿童用品股份有限公司,物流配送主管,物流主管,5-9千/月,7,宁河区潘庄工业园六经路与二纬路交口往北200米天津同康院内办公室203,宁河县,117.420025,39.3048
成都一汽四环汽车内饰件有限公司,物流管理员,物流专员,4.5-6千/月,5.25,宁河区现代产业区,滨海新区,117.491162,39.286967
中国天辰工程有限公司,物流工程师,物流专员,6-8千/月,7,京津路1号,北辰区,117.171556,39.19259
天津市立和工贸有限公司,现场管理员,物流专员,3-4.5千/月,3.75,天津市塘沽区港城大道东路中港城建材市场,滨海新区,117.611125,39.11333
天津振鸿国际物流有限公司,物流管理,物流专员,6-8千/月,7,泰达服务外包产业园5号楼602,滨海新区,117.733456,39.049648
中外运化工国际物流有限公司,仓储客服（汉沽）,物流专员,3-4.5千/月,3.75,汉沽区现代产业园瑶山路6号,滨海新区,117.798721,39.221708
海斯坦普汽车组件（天津）有限公司,仓库主管 Warehouse Supervisor,仓库主管,6-8千/月,7,开源道22号,红桥区,117.065226,39.405467
中外运久凌储运有限公司天津分公司,系统主管,物流主管,4.5-6千/月,5.25,天津市,河北区,117.222371,39.025423
天津市意利达家具有限公司,仓库管理员,仓库管理员,4.5-6千/月,5.25,天津市北辰区双口工业园永保路19号,北辰区,117.079601,39.24739
眺立士博（上海）贸易有限公司,西班牙语物流专员,物流专员,4.5-6千/月,5.25,天津和平区代表处,和平区,117.215492,39.12217
天津千顺科技有限公司,物料管理员（员工福利+奖金）,物流专员,4.5-6千/月,5.25,第二大街,滨海新区,117.734769,39.023536
天津圣德隆教育信息咨询有限公司,物流助理（奖金）,物流助理,4.5-6千/月,5.25,中北镇,西青区,117.098359,39.131998
天津艾迪康医学检验所有限公司,物流专员,物流专员,4.5-6千/月,5.25,天津空港经济区航空路53号,东丽区,117.413686,39.139058
北京畅速快递有限公司,天津诚聘有快递经验经理岗5000+,物流经理,5-8千/月,6.5,福源道78号  敏华工业城8--6号,武清区,117.008154,39.428814
蓝海宏业（天津）物流有限公司,物流现场,物流专员,3-4.5千/月,3.75,津围公路北北辰科技园景丽路39号蓝海宏业物流,北辰区,117.237766,39.235437
天津平和汽车配件有限公司,物流担当,物流专员,3-4.5千/月,3.75,逸仙科学工业园庆龄大路18号,武清区,117.033053,39.407245
信风海运集团,煤炭市场项目经理,物流经理,4.5-6千/月,5.25,天津市滨海新区贻行国际十号楼901室,滨海新区,,
美联（天津）国际贸易有限公司,海运揽货代表,物流专员,3.5-6千/月,4.75,天津空港经济区中心大道与西四道交口融和广场,东丽区,117.403139,39.155279
天津狮桥国际物流有限公司,物流专员（天津）,物流专员,4-6千/月,5,滨海新区金蕴道与融义路口华夏金融中心,东丽区,117.689459,39.003195
天津利隆生物科技有限公司,物流专员(职位编号：0005),物流专员,3-4.5千/月,3.75,静海区经济开发区银海道9号（银海花园酒店对过）,静海县,117.006502,38.937019
天津市康科德科技有限公司,仓储物流经理,物流经理,4.5-6千/月,5.25,天津市武清区梅厂镇福源经济区发源路2号,武清区,117.199695,39.369279
常州市上锐工业紧固件有限公司,分拣员,物流专员,3-4.5千/月,3.75,天津市武清开发区发达路6号第2号厂房,武清区,117.060979,39.406467
北京建朝物流有限公司,物流客服(职位编号：007),物流专员,4-5千/月,4.5,华北集团E区44号,北辰区,117.230894,39.237444
中铁现代物流科技股份有限公司天津分公司,物流专员,物流专员,3-4千/月,3.5,经济技术开发区,滨海新区,117.715311,39.033792
润通航运服务有限公司 RMS Marine Service Company Ltd,船舶供应主管/助理,物流助理,4-6千/月,5,开发区睦宁路60号（百事可乐院内）,滨海新区,,
江苏飞力达国际物流股份有限公司,仓储主管（工作地点：北京密云）,仓库主管,4.5-6千/月,5.25,北京密云,#N/A,116.849716,40.382129
程辉网络科技（天津）有限公司,仓储物流,物流专员,4-6千/月,5,天安智慧港A4-6层,东丽区,117.446913,39.166315
上海居嘉物流发展有限公司,操作经理,物流经理,6-9千/月,7.5,跃进路1199号健营先锋工贸园区,东丽区,117.304307,39.20356
上海创达物流有限公司,送货员,物流专员,5-6千/月,5.5,天津市滨海新区空港物流加工区环河南路.,东丽区,117.420202,39.12352
天津市协合广元物流有限公司,客服经理,物流经理,4.5-6千/月,5.25,天津市河东区十一经路鼎泰大厦801,河东区,117.236533,39.132049
海尔区域四网融合公司,物流专员,物流专员,3-4.5千/月,3.75,八里台海尔物流园,河北区,117.240012,39.09515
天津远信科技有限公司,物流主管,物流主管,6-8千/月,7,天津市宁河现在产业园区安捷路,宁河县,,
伍尔特(天津)电子有限公司,计划 Demand Planner,物流专员,3-5.5千/月,4.25,天津市华苑产业园区（环外）海泰发展六道7号,西青区,117.132339,39.092862
北京外企德科人力资源服务上海有限公司,仓库管理员-摩拜单车,仓库管理员,5-6千/月,5.5,天津市东丽区跃进路1199号（男河庄地铁站附近）,东丽区,,
天津飒派传动有限公司,运营实习生,物流专员,2-3千/月,2.5,高端装备制造产业园永信道10号,北辰区,117.164389,39.309269
深圳市华运国际物流有限公司,业务经理/航线经理/市场经理/海外开发经理,物流经理,3-7千/月,5,河西区南京路10号丝绸大厦10层1009,河西区,117.229777,39.118761
合众创亚（天津）包装有限公司,仓储物流主管,物流主管,4.5-6千/月,5.25,经济开发区七经路11号,河东区,117.229117,39.13597
天津福尔欣汽车线缆有限公司,物流主管,物流主管,4.5-6千/月,5.25,赛达科技园天源道9号,西青区,117.285857,38.9082
美瑞泰克科技(天津)有限公司,供应链助理,物流助理,4.5-6千/月,5.25,新技术产业园区海泰华科三路华鼎智地23号楼1门,西青区,117.095987,39.106916
上海优通供应链管理有限公司,仓库管理员,仓库管理员,3.5-4千/月,3.75,天津市北辰经济开发区双辰中路20号,北辰区,117.130192,39.272258
天恒国际物流有限公司,物流专员/助理（客服）,物流专员,3-5.9千/月,4.45,京门大道天恒国际公寓8203室,滨海新区,,
呷哺呷哺餐饮管理有限公司总部,天津配送中心系统专员(1470),物流专员,3-4.5千/月,3.75,天津市静海县经济开发区北区2号路（众品食业）,静海县,117.0403,39.013535
美团点评,美团众包站长,物流专员,6-8千/月,7,天津市工作地当地办公室,河北区,,
天津瑞派德医疗器械销售有限公司,仓库文员,物流专员,3-4.5千/月,3.75,鞍山西道259号时代国际公寓,南开区,117.171065,39.119894
宜家物流服务（中国）有限公司天津分公司,Sea to Sky 物流管理者培养项目,物流经理,3-4千/月,3.5,空港经济区纬十道125号,东丽区,117.459096,39.109794
天津菱华国际贸易有限公司,物流专员,物流专员,2.5-4千/月,3.25,天津市空港经济区西四道168号融合广场1号楼1门4层,东丽区,117.216811,39.103415
天津赛德生物制药有限公司,仓储物流专员,物流专员,3-4.5千/月,3.75,天津市静海县经济开发区聚海道,静海县,117.011888,38.935994
天津博世丰通科技有限公司,物流作业员,物流专员,3-4.5千/月,3.75,静海经济开发区北区六号路清亮东道1号,静海县,116.968401,38.93821
北京长久物流股份有限公司,承运商管理员岗,物流专员,3-5千/月,4,天津市津南区双桥河镇双桥开发区外津储运,津南区,117.452616,38.997153
南京市海太家具有限公司天津分公司,运营专员,物流专员,3-4.5千/月,3.75,天津市河东区津滨大道万达广场写字楼A座15层,河东区,117.260003,39.130479
天津顺势永祥商贸有限公司,物流主管,物流主管,3.5-4.5千/月,4,天津市河西区洞庭路美年广场4-1410,河西区,117.256438,39.079783
雷吉那(天津)链条有限公司,仓库文员  Warehouse Clerk,物流专员,4.5-6千/月,5.25,天津市西青开发区天祥工业园祥瑞路17号,西青区,117.198577,39.018519
上海晨光科力普办公用品有限公司,物流助理（2019届秋季校园招聘）,物流助理,4-5.5千/月,4.75,天津市武清区福源道78号敏化工业园8-1（晨光库房）,武清区,117.027287,39.422505
武汉汇博天下科技有限公司,物流文员/助理 包食宿+奖金,物流助理,4.5-6千/月,5.25,西三道,东丽区,117.39617,39.15856
天津市思邈堂医药连锁有限公司,电商-物流主管,物流主管,2-3千/月,2.5,华明镇津赤路1号滨海渔港酒楼旁,东丽区,117.335248,39.170066
振华物流集团有限公司,项目助理,物流助理,4.5-6千/月,5.25,MSD-B1,河北区,117.7153,39.030472
华劳（天津）人力资源有限公司,船务/空运陆运操作,物流专员,5-8千/月,6.5,无锡市新吴区硕放街道新东安路金捷公寓4号楼大信物流,滨湖区,120.472847,31.482768
华劳（天津）人力资源有限公司,船务/空运陆运操作,物流专员,4.5-6千/月,5.25,惠农何滨工业园区钢电南路43号,河北区,106.78921,39.305658
天津金域医学检验所有限公司,物流专员,物流专员,3-3.5千/月,3.25,天津市华苑产业园区桂苑路18号,西青区,117.131633,39.096808
深圳市中海通物流股份有限公司,货代外贸经理,物流经理,6-8千/月,7,大连,河北区,121.621628,38.918953
同方环球（天津）物流有限公司,物流担当（天津）,物流专员,4.5-6千/月,5.25,经济技术开发区泰达服务外包产业园2号楼3层,滨海新区,117.736748,39.048355
库房无忧,物流专员 包住（天津津南）,物流专员,6-8千/月,7,天津市津南区双港镇联东U谷总部大观5号楼A座2313,津南区,117.308161,39.022538
库房无忧,物流专员 包住（天津武清）,物流专员,6-8千/月,7,天津市武清区杨村镇振华路与建国北路交叉口君利商厦D座801-2室,武清区,117.075508,39.378461
鱼酷餐饮连锁管理有限公司,物流专员,物流专员,5-7千/月,6,陆路港一纬路9号 中储物流园办公楼,东丽区,117.30839,39.273687
天津信志达物流有限公司,外贸海运操作,物流专员,3-4千/月,3.5,天津市河西区吴家窑大街与卫津南路交口中海广场1907,河西区,,
天津信志达物流有限公司,内贸海运操作,物流专员,3-4千/月,3.5,天津市河西区吴家窑大街与卫津南路交口中海广场1907,河西区,,
天津市信基科技有限公司,物流专员,物流专员,4.5-6千/月,5.25,航双路空港国际总部基地A区A6-4层4028室,东丽区,117.34032,39.120084
天津同源国际货运代理有限公司,文员 报关文员 物流文员,物流专员,3-4千/月,3.5,大沽南路与利民道交口澳景大厦2门802,河西区,117.230536,39.104814
天津同源国际货运代理有限公司,市场部操作运价员,物流专员,3-4.5千/月,3.75,大沽南路澳景大厦2-801室,河西区,117.230176,39.104921
天津同源国际货运代理有限公司,货运海外业务销售员,物流专员,4.5-7.5千/月,6,大沽南路与利民道交口澳景大厦2门802,河西区,117.230536,39.104814
天津同源国际货运代理有限公司,海运进口销售,物流专员,3.5-6千/月,4.75,大沽南路与利民道交口澳景大厦2门802,河西区,117.230536,39.104814
天津世尊进出口贸易有限公司,物流专员（双休）,物流专员,4.5-6千/月,5.25,滨海新区,滨海新区,117.717131,39.009456
天津世尊进出口贸易有限公司,物流专员(双休),物流专员,4.5-6千/月,5.25,滨海新区,滨海新区,117.717131,39.009456
天津世尊进出口贸易有限公司,物流专员/提供食宿,物流专员,4.5-6千/月,5.25,滨海新区,滨海新区,117.717131,39.009456
天津世尊进出口贸易有限公司,物流专员,物流专员,3-4.5千/月,3.75,滨海新区,滨海新区,117.717131,39.009456
跨越速运集团有限公司,塘沽市场助理,物流助理,6-8千/月,7,天津市塘沽区丹江路369号1楼,滨海新区,117.671854,39.064171
跨越速运集团有限公司,塘沽销售助理,物流助理,6-8千/月,7,天津市塘沽区丹江路369号1楼,滨海新区,117.671854,39.064171
云量子供应链管理有限公司,仓库库管管培生,仓库管理员,4-6千/月,5,天津市武清区,武清区,117.050597,39.389871
云量子供应链管理有限公司,运输经理助理,运输经理,4-6千/月,5,天津市武清区,武清区,117.050597,39.389871
卓集送信息科技（武汉）有限公司,用户运力,物流专员,4-6千/月,5,天津市 西青区 精武镇 创新道32号(津涞公路与工西路交口) 天津电商城（3楼B1--3013）,西青区,117.114121,39.050026
卓集送信息科技（武汉）有限公司,运力运营,物流专员,4-8千/月,6,天津市 西青区 精武镇 创新道32号(津涞公路与工西路交口) 天津电商城（3楼B1--3013）,西青区,117.114121,39.050026
卓集送信息科技（武汉）有限公司,车务运营主管,运输主管,4-6千/月,5,天津市 西青区 精武镇 创新道32号(津涞公路与工西路交口) 天津电商城（3楼B1--3013）,西青区,117.114121,39.050026
卓集送信息科技（武汉）有限公司,车务运营(职位编号：4),调度员,5-8千/月,6.5,天津市 西青区 精武镇 创新道32号(津涞公路与工西路交口) 天津电商城（3楼B1--3013）,西青区,117.114121,39.050026
卓集送信息科技（武汉）有限公司,车务运力(职位编号：3),调度员,5-8千/月,6.5,天津市 西青区 精武镇 创新道32号(津涞公路与工西路交口) 天津电商城（3楼B1--3013）,西青区,117.114121,39.050026
上海速越物流有限公司,物流经理,物流经理,6-8千/月,7,金钟街道,东丽区,117.278973,39.208893
天津蓝储国际物流有限公司,物流文员,物流专员,3-6千/月,4.5,天津市东丽区华明镇北于堡工业区蓝储物流,东丽区,,
天津蓝储国际物流有限公司,现场(职位编号：002),物流专员,3-4千/月,3.5,天津市东丽区华明镇北于堡工业区蓝储物流,东丽区,,
天津蓝储国际物流有限公司,调度跟单(职位编号：002),调度员,3-6千/月,4.5,天津市东丽区华明镇北于堡工业区蓝储物流,东丽区,,
江苏天合国际物流有限公司,驻厂代表,物流专员,5-8千/月,6.5,天津市滨海新区塘沽新港四号路北 中储发展股份有限公司天津新港分公司内现场办公,东丽区,,
嘉里粮油（天津）有限公司,物流公司客服专员,物流专员,5-8千/月,6.5,宁河现代产业园海航东路华康物流园3号库,宁河县,,
嘉里粮油（天津）有限公司,物流公司市场专员,物流专员,4.5-8千/月,6.25,宁河现代产业园海航东路华康物流园3号库,宁河县,,
天津瀚诺威国际物流有限公司,客服专员单证操作（全职 /招收应届）,物流专员,3-4.5千/月,3.75,临港经济区,河北区,117.722029,38.962197
天津瀚诺威国际物流有限公司,CSR/单证操作客户专员 （金属部）,物流专员,3.5-6千/月,4.75,临港经济区,河北区,117.722029,38.962197
杭州蓝豚供应链管理有限公司,物流调度专员/主管,物流专员,6-9千/月,7.5,天津市东丽区维五道169号,东丽区,,
深圳市中海通物流股份有限公司,货代资源主管,运输主管,6-8千/月,7,开发区第三大街8号豪威大厦1门1001室,滨海新区,117.693037,39.042459
TCL速必达希杰物流有限公司,物流储备干部（应届生）,物流专员,4.5-6千/月,5.25,全国灵活安排,河北区,,
天津市花开远方教育信息咨询有限公司,仓储物流主管,物流主管,6-8千/月,7,恒生科技园35栋,津南区,117.302941,39.021211
天津市花开远方教育信息咨询有限公司,物流专员,物流专员,4.5-6千/月,5.25,恒生科技园35栋,津南区,117.302941,39.021211
谷山企业管理咨询（天津）有限公司,生产主管/物流主管,物流主管,6-8千/月,7,黄海路139号,滨海新区,117.701314,39.054223
纳通医疗集团,物流专员,物流专员,3.5-4.5千/月,4,天津市空港经济区经一路318号,东丽区,,
天津特思博国际货运代理有限公司,物流主管,物流主管,4.5-6千/月,5.25,东马路129号仁恒置地国际中心写字楼23层,南开区,117.197254,39.144689
广东怀远物流实业有限公司,调度员(天津),调度员,4.5-6千/月,5.25,天津市空港经济开发区菜鸟物流园,东丽区,,
广东怀远物流实业有限公司,现场管理员(天津),物流专员,4.5-6千/月,5.25,天津市空港经济开发区菜鸟物流园,东丽区,,
麦格纳汽车镜像（天津）有限公司,仓库主管,仓库主管,6-8千/月,7,天津空港经济区中环西路491号,东丽区,117.376936,39.167705
天地华宇集团,物流专员,物流专员,3-4.5千/月,3.75,天津市宝坻区 农产品交易市场3-b-55,宝坻区,117.351307,39.719798
天地华宇集团,物流专员,物流专员,3-4.5千/月,3.75,天津市北辰区双街镇德利得物流园天地华宇物流公司,北辰区,117.116385,39.277509
天地华宇集团,物流专员,物流专员,3-4.5千/月,3.75,天津市西青开发区大寺镇大任庄津荣道18号荣大汽配城院内C座C15,西青区,117.257531,39.03205
天地华宇集团,物流专员,物流专员,3-4.5千/月,3.75,徐官屯工贸大街,武清区,117.087068,39.398161
天地华宇集团,塘沽天地华宇招物流专员,物流专员,3-4.5千/月,3.75,塘沽区海洋高新区庐山道82号,滨海新区,117.669147,39.014578
天地华宇集团,津南双港天地华宇招物流专员,物流专员,3-4.5千/月,3.75,双港镇郭黄庄上海街52号,津南区,117.285128,39.039541
天地华宇集团,北辰天地华宇招物流专员（双街）,物流专员,2.5-4.5千/月,3.5,双街镇德利得物流园内,北辰区,117.117261,39.276429
天地华宇集团,河北区天地华宇招物流业务客服,物流专员,2.7-3.5千/月,3.1,金钟河大街与外环线交口金钟商会楼宇总部楼后,河北区,,
天地华宇集团,南开天地华宇招物流专员,物流专员,2.5-3.5千/月,3,鞍山西道三潭路三潭东里5号楼,南开区,117.160558,39.123798
天地华宇集团,南开区天地华宇招业务客服,物流专员,2.5-3.5千/月,3,鞍山西道三潭路三潭东里5号楼,南开区,117.160558,39.123798
天津永顺丰国际物流有限公司,港口现场调度,调度员,2.2-3.2千/月,2.7,天津塘沽各散货码头和集装箱堆场,滨海新区,,
天津永顺丰国际物流有限公司,海运操作,物流专员,3-6千/月,4.5,南开三马路与长江道交口金融街中心A座2006-2007,南开区,117.180021,39.129026
天津百特国际货运代理有限公司,国际货运代理 物流专员(职位编号：better001),物流专员,2.5-4.5千/月,3.5,张自忠路240号港湾中心1009,和平区,117.218462,39.135883
高能智核环保科技有限公司,仓库管理员,仓库管理员,4.5-6千/月,5.25,天津市滨海高新区滨海科技园高新三路120号,东丽区,117.533447,39.139851
天津市兆阳国际货运代理有限公司,进出口专员,物流专员,3-4.5千/月,3.75,货运路企业服务中心,东丽区,117.337502,39.140631
苏美达国际技术贸易有限公司,物流管理专员(职位编号：sumecitc000395),物流专员,4.5-6千/月,5.25,津滨大道57号万达广场,河东区,117.263418,39.129316
弗玛仓储（太仓）有限公司,运输调度员,调度员,3-4.5千/月,3.75,杨柳青,西青区,117.021445,39.13467
广东东源新地股份有限公司,诚招物流专员,物流专员,4-4.5千/月,4.25,万科新城花园东区紫芸苑2号楼104,北辰区,117.215673,39.214991
天津宝涞精工集团股份有限公司,仓储物流主管（宝坻区）,物流主管,5-7千/月,6,天津市宝坻区牛家牌镇福顺路8号,宝坻区,117.298269,39.533585
嘉里大通物流有限公司天津分公司,仓库客服人员,物流专员,3-4.5千/月,3.75,卫国道204号高等教育出版社院内,东丽区,,
嘉里大通物流有限公司天津分公司,陆运客服人员,物流专员,3-4.5千/月,3.75,卫国道204号高等教育出版社院内,东丽区,,
嘉里大通物流有限公司天津分公司,驻厂客服,物流专员,3-4.5千/月,3.75,卫国道204号高等教育出版社院内,东丽区,,
嘉里大通物流有限公司天津分公司,客服专员,物流专员,3-4.5千/月,3.75,卫国道204号高等教育出版社院内,东丽区,,
博士伦（上海）贸易有限公司浙江经销商,仓库管理员,仓库管理员,3-4.2千/月,3.6,南门外大街世纪花园,南开区,117.186529,39.137608
凌岛（天津）建筑设计咨询有限公司,物流专员（绩效+餐补）,物流专员,4.5-6千/月,5.25,天津东丽区,东丽区,117.320568,39.092332
武汉鑫麟杰商贸有限公司,物流专员（五险一金 +周末双休）,物流专员,4.5-6千/月,5.25,西青区,西青区,117.01441,39.148727
武汉鑫麟杰商贸有限公司,物流专员（双休+补贴）,物流专员,4.5-6千/月,5.25,河东区,河东区,117.258413,39.134487
武汉鑫麟杰商贸有限公司,物流专员（底薪3K +周末双休+五险一金）,物流专员,4.5-6千/月,5.25,西青区,西青区,117.01441,39.148727
圆通速递有限公司,快递员,物流专员,5.5-8千/月,6.75,天津市东丽区机场货运路第二大街三号路圆通速递有限公司,东丽区,117.337429,39.142718
纳通医疗集团,物流专员（五险一金+住宿）,物流专员,3-4.5千/月,3.75,天津市空港经济区经一路318号,东丽区,,
天津大田储运有限公司,驻厂操作员,物流专员,3.5-4千/月,3.75,空港经济区叶水福仓库,东丽区,117.380734,39.159563
天津顶立酒业有限公司,仓库主管,仓库主管,4.5-6千/月,5.25,天津市滨海新区塘沽欧美小镇四期1365号,滨海新区,117.67702,39.055368
长春一汽富维汽车零部件股份有限公司天津冲压件分公司,物流工程师,物流专员,6-8千/月,7,天津市北辰区经济技术开发区兴河路与永信道交口,北辰区,,
厦门华商经纬物流有限公司,操作兼客服,物流专员,4-6千/月,5,天津市和平区兰州道金德园1号楼608,和平区,117.197517,39.123934
黑龙江飞鹤乳业有限公司,运管专员,物流专员,4-5千/月,4.5,北辰区,北辰区,117.141845,39.230168
瑞尔国际物流（北京）有限公司,清关客服,物流专员,4.5-6千/月,5.25,天津市南开区南开三马路37号中关村E谷(南开)创想世界五层500室,南开区,117.179908,39.141685
上海艾杰飞人力资源有限公司,国际物流主管(编号104164) 日语必须,物流主管,5-7.5千/月,6.25,天津,河北区,117.205914,39.090908
上海艾杰飞人力资源有限公司,日企物流管理担当(编号105307) 日语英语必须,物流经理,5-7.5千/月,6.25,天津,河北区,117.205914,39.090908
上海艾杰飞人力资源有限公司,现场总务担当(编号101987) 日语必须,物流经理,3.7-5千/月,4.35,天津,河北区,117.205914,39.090908
上海艾杰飞人力资源有限公司,生产管理担当(编号102040) 日语必须,物流经理,5-5.6千/月,5.3,天津,河北区,117.205914,39.090908
上海艾杰飞人力资源有限公司,国H物流担当(编号100190) 日语必须,物流经理,4.3-5.6千/月,4.95,天津,河北区,117.205914,39.090908
上海艾杰飞人力资源有限公司,日企港口船长(编号97734) 日语必须,物流经理,5-7.5千/月,6.25,天津,河北区,117.205914,39.090908
密尔克卫化工供应链服务股份有限公司天津分公司,客服,物流专员,4.5-6千/月,5.25,天津市河东区天津河东区十一经路天星河畔广场,河东区,117.228649,39.125681
中国天辰工程有限公司,物流管理,物流经理,6-8千/月,7,京津路1号,北辰区,117.171556,39.19259
天津瑞才人力资源有限公司,物流担当--日系制造业,物流经理,5-5.5千/月,5.25,天津开发区,滨海新区,117.687681,39.038857
中外运化工国际物流有限公司,物流专员（仓储/运输/国际货代/多式联运）,物流专员,3.5-4.5千/月,4,洞庭路157号,河西区,117.258449,39.088027
天津品骏物流有限公司,储备干部/站长,物流经理,3.7-5千/月,4.35,崔黄口镇电子商务产业园区宏达道20号,武清区,117.172666,39.523283
北京乐卡车联科技有限公司,精准拼车专员,物流专员,5-8千/月,6.5,通惠河南路1081号环宇国际大厦15层,河北区,116.543089,39.913818
孩子王儿童用品股份有限公司,物流退货专员,物流专员,3-5千/月,4,宁河区潘庄工业园六经路与二纬路交口往北200米天津同康院内办公室203,宁河县,117.420025,39.3048
孩子王儿童用品股份有限公司,物流发货专员,物流专员,3-5千/月,4,宁河区潘庄工业园六经路与二纬路交口往北200米天津同康院内办公室203,宁河县,117.420025,39.3048
孩子王儿童用品股份有限公司,物流质控专员,物流专员,3-5千/月,4,宁河区潘庄工业园六经路与二纬路交口往北200米天津同康院内办公室203,宁河县,117.420025,39.3048
孩子王儿童用品股份有限公司,物流仓储主管,仓库主管,4.5-8千/月,6.25,宁河区潘庄工业园六经路与二纬路交口往北200米天津同康院内办公室203,宁河县,117.420025,39.3048
天地华宇集团,河东天地华宇招聘物流专员,物流专员,3-4千/月,3.5,沙柳北路冠云东里13号楼,河东区,117.290426,39.143276
深圳招商美冷供应链有限公司,运作专员,物流专员,4.5-6千/月,5.25,天津市东丽区空港经济区航空路152号,东丽区,117.418705,39.13335
深圳招商美冷供应链有限公司,物流助理,物流助理,4.5-6千/月,5.25,天津市东丽区空港经济区航空路152号,东丽区,117.418705,39.13335
北京畅速快递有限公司,诚聘仓配快递专员五险,物流专员,4-5千/月,4.5,福源道78号  敏华工业城8--6号,武清区,117.008154,39.428814
北京畅速快递有限公司,诚聘仓配物流专员五险4000+,物流专员,4-5千/月,4.5,福源道78号  敏华工业城8--6号,武清区,117.008154,39.428814
北京畅速快递有限公司,直聘天津配送专员5000+,物流专员,4.8-5千/月,4.9,福源道78号  敏华工业城8--6号,武清区,117.008154,39.428814
弗玛仓储（太仓）有限公司,系统操作员,物流专员,3-4.5千/月,3.75,杨柳青,西青区,117.021445,39.13467
蓝海宏业（天津）物流有限公司,客服专员(职位编号：18630917081),物流专员,3-5千/月,4,津围公路北北辰科技园景丽路39号蓝海宏业物流,北辰区,117.237766,39.235437
蓝海宏业（天津）物流有限公司,仓库主管,仓库主管,4.5-6千/月,5.25,北辰区华盛道158号蓝海宏业（地铁3号线华北集团站）,北辰区,117.234042,39.233704
江苏正天物流有限公司,物流专员,物流专员,4.5-6千/月,5.25,杨柳青104国道与柳霞路交叉口,西青区,,
美联（天津）国际贸易有限公司,海运客服人员,物流专员,3.5-6千/月,4.75,天津空港经济区中心大道与西四道交口融和广场,东丽区,117.403139,39.155279
天地华宇集团,物流专员,物流专员,3-4.5千/月,3.75,天津市北辰区双街镇德利得物流园内天地华宇物流,北辰区,117.255539,39.070525
广州一智通供应链管理有限公司,直营点经理/物流经理,物流经理,6-8千/月,7,北辰区,北辰区,117.141401,39.230342
广州一智通供应链管理有限公司,物流操作员,物流专员,4-6千/月,5,宜家物流分拨中心125号,河北区,117.461458,39.109883
广州一智通供应链管理有限公司,物流专员（宜家项目）,物流专员,4.5-6千/月,5.25,天津市 东丽区 宜家物流分拨中心,东丽区,117.461458,39.109883
广州一智通供应链管理有限公司,物流专员,物流专员,4-6千/月,5,十路125号宜家物流分拨中心,河北区,117.461458,39.109883
天津蓝储国际物流有限公司,调度跟单,调度员,3-6千/月,4.5,天津市东丽区华明镇北于堡工业区蓝储物流,东丽区,,
天津蓝储国际物流有限公司,客服跟单,物流专员,3-6千/月,4.5,天津市东丽区华明镇北于堡工业区蓝储物流,东丽区,,
天津蓝储国际物流有限公司,客服跟单,物流专员,3-5千/月,4,天津市东丽区华明镇北于堡工业区蓝储物流,东丽区,,
天津蓝储国际物流有限公司,开单文员,物流专员,3-6千/月,4.5,地址1,河北区,,
天津蓝储国际物流有限公司,调度跟单,调度员,3-5千/月,4,天津市东丽区华明镇北于堡工业区蓝储物流,东丽区,,
天津蓝储国际物流有限公司,客服跟单(职位编号：001),物流专员,3-6千/月,4.5,天津市东丽区华明镇北于堡工业区蓝储物流,东丽区,,
天津平和汽车配件有限公司,物流担当,物流专员,3-4.5千/月,3.75,逸仙科学工业园庆龄大路18号,武清区,117.033053,39.407245
润通航运服务有限公司 RMS Marine Service Company Ltd,船舶供应助理,物流助理,4-6千/月,5,开发区睦宁路60号（百事可乐院内）,滨海新区,,
江苏飞力达国际物流股份有限公司,货代操作,物流专员,2-4千/月,3,天津 河西区,河西区,117.229775,39.115763
北京建朝物流有限公司,物流调度(职位编号：009),调度员,4-6千/月,5,南法信镇旭辉空港中心D座414室,河北区,116.618145,40.12152
万享供应链管理（天津）有限公司,国际物流销售主管,物流主管,6-8千/月,7,小白楼解放北路188号信达广场3009-3010,和平区,117.224435,39.123687
万享供应链管理（天津）有限公司,物流专员,物流专员,3-4千/月,3.5,小白楼解放北路188号信达广场3009-3010,和平区,117.224435,39.123687
万享供应链管理（天津）有限公司,进口海运物流专员(职位编号：7),物流专员,3-4千/月,3.5,小白楼解放北路188号信达广场3009-3010,和平区,117.224435,39.123687
天津艾迪康医学检验所有限公司,物流主管,物流主管,6-8千/月,7,天津空港经济区航空路53号,东丽区,117.413686,39.139058
天津狮桥国际物流有限公司,数据分析员（天津）,物流专员,4-6千/月,5,滨海新区金蕴道与融义路口华夏金融中心,东丽区,117.689459,39.003195
北京东方兴贸国际货运代理有限公司,副总经理,物流经理,6-8千/月,7,滨海新区,滨海新区,117.717395,39.009416
上海艾杰飞人力资源有限公司,日企物流担当(编号96149),物流经理,4.3-5.6千/月,4.95,天津,河北区,117.205914,39.090908
上海艾杰飞人力资源有限公司,日企物流管理担当(编号96130) 日语必须,物流经理,5.6-6.2千/月,5.9,天津,河北区,117.205914,39.090908
天地华宇集团,北辰天地华宇招聘门店经理,物流经理,6-8千/月,7,双街镇德利得物流园内,北辰区,117.117261,39.276429
天地华宇集团,东丽天地华宇招聘业务客服,物流专员,2.5-4千/月,3.25,大毕庄金钟路与跃进路交叉口,东丽区,117.295227,39.212024
天津大田储运有限公司,项目操作,物流专员,3-4.5千/月,3.75,宁河,宁河县,117.832396,39.336956
北京长久物流股份有限公司,现场管理员,物流专员,4.5-6千/月,5.25,天津市津南区双桥河镇双桥开发区外津储运,津南区,117.452616,38.997153
蓝海宏业（天津）物流有限公司,物流文员,物流专员,3-4.5千/月,3.75,华明镇北于堡（津芦线）3099号蓝盟物流园内,东丽区,117.395046,39.228371
天津多邦物流有限公司,物流现场调度员,调度员,4.5-6千/月,5.25,中北镇附近,西青区,117.098359,39.131998
上海晨光科力普办公用品有限公司,物流助理,物流助理,4-4.5千/月,4.25,天津市武清区福源道78号敏化工业园8-1（晨光库房）,武清区,117.027287,39.422505
武汉汇博天下科技有限公司,物流专员/助理,物流专员,4.5-6千/月,5.25,华兴道,河东区,117.223728,39.147671
武汉汇博天下科技有限公司,物流专员+双休,物流专员,4.5-6千/月,5.25,华兴道,河东区,117.223728,39.147671
武汉汇博天下科技有限公司,物流专员 高薪,物流专员,4.5-6千/月,5.25,华兴道,河东区,117.223728,39.147671
武汉汇博天下科技有限公司,物流专员（内编+年终奖+五险一金+轻松5K）,物流专员,4.5-6千/月,5.25,荣业大街,和平区,117.191333,39.136506
天津荣达物流有限公司广州分公司,车队长,调度员,4.5-7千/月,5.75,滨海新区第一大街博润家园7-2-101,滨海新区,117.723985,39.021745
美菜网,运输管理主管,运输主管,4.5-6千/月,5.25,苏州市吴江区中山北路2501号（苏州美菜一仓）,吴江区,120.65465,31.209747
海斯坦普汽车组件（天津）有限公司,物料计划员 Material Planner,调度员,4.5-6千/月,5.25,开源道22号,红桥区,117.065226,39.405467
天津斯坦雷电气有限公司,营业担当,物流专员,4-4.5千/月,4.25,经济技术开发区南海路140号,滨海新区,117.71361,39.053181
天津宜家家居有限公司,销售及供应支持专员,物流专员,5-7千/月,6,津塘公路433号（轻轨9号线东丽开发区站旁）,东丽区,117.685607,39.035405
中联信达（天津）科技发展有限公司,物料配送员,物流专员,3-5千/月,4,九园工业园区北环路9号,宝坻区,117.442932,39.452602
北京因泰立科技有限公司,库房管理专员,物流专员,2-4千/月,3,兴华道与兴华三支路交口东北侧100米E座厂房E2-201室,西青区,,
天津世尊进出口贸易有限公司,供应链专员,供应链专员,4.5-6千/月,5.25,滨海新区,滨海新区,117.717131,39.009456
北京普罗格科技股份有限公司,上架组组长,物流专员,4-5千/月,4.5,天津市武清区京滨工业园菜鸟网络4号库,武清区,116.796014,39.55822
利星行机械有限公司 Lei Shing Hong Machinery,物流经理,物流经理,6-8千/月,7,天津市,河北区,117.20952,39.093669
天津德泰腾达进出口有限公司,物料专员,物料专员,3.5-4.5千/月,4,合肥道,河西区,117.224993,39.119909
上海艾杰飞人力资源有限公司,日企仓管经理(编号106783),物流经理,7.7-9.7千/月,8.7,天津,河北区,117.205914,39.090908
禧天龙科技发展有限公司,供应链实习生,物流专员,2-3千/月,2.5,天津滨海高新区风光大道12号,东丽区,117.517777,39.113883
谷山企业管理咨询（天津）有限公司,车辆调度主管,运输主管,6-7千/月,6.5,新港,滨海新区,117.750928,38.992273
天津丰田物流有限公司,经营统括担当,物流专员,3-4.5千/月,3.75,经济技术开发区第11大街15号,滨海新区,117.713388,39.077761
企事通集团有限公司,仓库管理员,仓库管理员,3-4.5千/月,3.75,天津市津南区北闸口镇天乐创新产业园,津南区,117.421985,38.954515
天狮集团有限公司,需求计划主管(J10570),物流主管,6-8千/月,7,天津市武清开发区新源道18号天狮国际健康产业园,武清区,117.02486,39.437302
天津市捷士通科技有限公司,仓库管理员,仓库管理员,4.5-6千/月,5.25,中关村可信产业园,北辰区,117.125596,39.285478
天津华海清科机电科技有限公司,领料员,物流专员,4.5-6千/月,5.25,天津市津南区海河科技园聚兴道9号 8号楼,津南区,117.420801,38.98263
利丰供应链管理（中国）有限公司,仓库系统文员,物流专员,4.5-6千/月,5.25,天津市西青区经济技术开发区天源道11号普菱物流园,西青区,,
天津东一韬鸿智能控制装备有限公司,仓库管理员,仓库管理员,4-6千/月,5,无瑕工业园A区18号,东丽区,117.525237,39.045183
天津安通林汽车饰件有限公司,物料计划员,物流专员,4.5-6千/月,5.25,天津市武清区汽车产业园云景道2号,武清区,117.258526,39.38482
嘉里大通物流有限公司天津分公司,项目运输经理,运输经理,6-8千/月,7,卫国道204号高等教育出版社院内,东丽区,,
武汉鑫麟杰商贸有限公司,供应链专员,供应链专员,4.5-6千/月,5.25,和平区,和平区,117.221467,39.12339
天津信和天成科技有限公司,物料管理人员（五险一金）,物流专员,4.5-6千/月,5.25,天津-河东区,河东区,117.258413,39.134487
天津英创汇智汽车技术有限公司,物料运营工程师,物流专员,4-7千/月,5.5,汽车产业园,河北区,117.205745,39.385633
北京丽阳虹科技有限公司,仓库管理员,仓库管理员,3-4.5千/月,3.75,五经路16号8号楼3层,河北区,117.208826,39.139848
蓝沛科技（天津）有限公司,供应链专员,仓库管理员,4.5-6千/月,5.25,武清开发区卧龙潭别墅,武清区,117.069832,39.403786
北京超思电子技术有限责任公司,仓库管理员,仓库管理员,2-4千/月,3,开发区源泉路17号红日技术转化中心,河北区,117.076433,39.405037
施耐德万高（天津）电气设备有限公司,物流专员,物流专员,7-9千/月,8,天津滨海高新区华苑产业区(环外)海泰创新六路11号,西青区,117.076324,39.089108
天津海铁联捷国际物流有限公司,营运分析主管/经理,物流经理,4.5-6千/月,5.25,天津市和平区兴安路环球金融中心1613室,和平区,117.198891,39.13951
天津奥尔森物流有限公司,调度主管,运输主管,4.5-6千/月,5.25,天津市大港区大港炼油厂北侧200米,滨海新区,,
埃克森（天津）实业集团有限公司,仓库管理员,仓库管理员,4-6千/月,5,天津市武清区崔黄口镇电子商务产业园兴广路1号,武清区,117.169976,39.527598
天津市科远锦成科技有限公司,库管,仓库管理员,3-4.5千/月,3.75,小淀镇景祥路15号温鑫工业园内,北辰区,117.280048,39.231373
法国迪卡侬集团,Supply Chain Production Leader生产供应链主管(职位编号：Decathlon002121),供应链主管,6-8千/月,7,河西区围堤道103号峰汇广场B座21楼,河西区,117.213471,39.103329
天津光电集团有限公司,材料员（有限）,物流专员,2-4千/月,3,天津市河西区泰山路6号,河西区,117.236198,39.092811
唯品会（中国）有限公司,耗材管理员,物流专员,3-4千/月,3.5,崔黄口镇电子商务产业园宏达道20号,武清区,117.182463,39.522683
中信国安盟固利动力科技有限公司,物料计划员,物流专员,6-8千/月,7,九园工业区,北辰区,117.44258,39.452277
天地融科技股份有限公司,库管员,仓库管理员,4.5-6千/月,5.25,泉达路20号,武清区,117.052602,39.408824
天津一冶建设工程有限公司,材料采购/物资管理,物流专员,6-8千/月,7,东丽区无瑕街,东丽区,117.496289,39.05512
天津日特固防音配件有限公司,物料计划工程师,物流专员,6-8千/月,7,武清经济开发区福源道75号,武清区,,
康师傅杭州顶园食品有限公司,物料专员,物料专员,3-4.5千/月,3.75,洞庭路161号,河西区,117.699203,39.07216
招商路凯（中国）投资控股有限公司,仓库管理员,仓库管理员,3-4.5千/月,3.75,天津市东丽区合兴路国家物资储备八三八处,东丽区,,
万享供应链管理（天津）有限公司,诚聘国际物流销售+高提成,物流专员,3-6千/月,4.5,小白楼解放北路188号信达广场3009-3010,和平区,117.224435,39.123687
天津万立鑫晟新材料技术研究院有限公司,仓库管理员,仓库管理员,2-3千/月,2.5,天津市静海县良王庄,静海县,116.981841,39.031716
天津三电汽车空调有限公司,物料计划员,物流专员,2-4千/月,3,西青开发区赛达二大道8号,西青区,117.263596,38.992595
布柯玛蓄能器（天津）有限公司,仓库统计,物流专员,3-4.5千/月,3.75,津南经济开发区中惠道2号,津南区,117.312634,39.040044
小米通讯技术有限公司,小米之家库管员（滨海万达店）,仓库管理员,4.5-6千/月,5.25,滨海万达,河北区,117.685147,39.020866
无锡礼恩派华光汽车部件有限公司天津分公司,物流工,物流专员,3-4.5千/月,3.75,天津市武清开发区福源道77号10号厂房,武清区,117.027465,39.423113
昌易佳（天津）国际贸易有限公司,库管,仓库管理员,3-3.5千/月,3.25,天津市小站镇盛唐工业区盛唐1号路二号院,东丽区,,
辽宁爱普罗斯饲料有限公司,原料保管,仓库管理员,3.5-4.5千/月,4,唐山市芦台经济开发区二社区（北粮农业西侧）,宁河县,,
上海澳隆物流有限公司,运输经理,运输经理,4.5-6千/月,5.25,天津市滨海新区天津港航运君景广场1-4-823室,滨海新区,,
苏宁易购集团股份有限公司,快递站长,物流专员,4.5-6千/月,5.25,天津,河北区,117.205914,39.090908
北京普罗格科技股份有限公司,盘点组组长,物流专员,4-5千/月,4.5,天津市武清区京滨工业园菜鸟网络4号库,武清区,116.796014,39.55822
北京普罗格科技股份有限公司,耗材管理员,物流专员,3-4千/月,3.5,天津市武清区京滨工业园菜鸟网络4号库,武清区,116.796014,39.55822
卓集送信息科技（武汉）有限公司,物流车务运营,物流专员,4-6千/月,5,天津市 西青区 精武镇 创新道32号(津涞公路与工西路交口) 天津电商城（3楼B1--3013）,西青区,117.114121,39.050026
天狮集团有限公司,供应链主管(J10570),供应链主管,6-8千/月,7,天津市武清开发区新源道18号天狮国际健康产业园,武清区,117.02486,39.437302
天津宜家家居有限公司,物流部实习生,物流专员,2-3千/月,2.5,津塘公路433号（轻轨9号线东丽开发区站旁）,东丽区,117.685607,39.035405
利丰供应链管理（中国）有限公司,仓库系统文员,物流专员,4.5-6千/月,5.25,天津市西青区赛达九支路16号普佳物流园B3,西青区,117.233487,38.98584
嘉里大通物流有限公司天津分公司,运输经理,运输经理,6-8千/月,7,卫国道204号高等教育出版社院内,东丽区,,
天津海铁联捷国际物流有限公司,箱管操作 Equipment operator,物流专员,3-4.5千/月,3.75,天津市和平区兴安路环球金融中心1613室,和平区,117.198891,39.13951
天津海铁联捷国际物流有限公司,项目主管 Project supervisor,物流主管,4.5-6千/月,5.25,天津市和平区兴安路环球金融中心1613室,和平区,117.198891,39.13951
天津海铁联捷国际物流有限公司,销售经理 Sales manager,物流经理,6-8千/月,7,天津滨海新区开发区,河北区,117.687681,39.038858
天津海铁联捷国际物流有限公司,集装箱管理部经理 Equipment control manager,物流经理,4.5-6千/月,5.25,天津市和平区兴安路环球金融中心1613室,和平区,117.198891,39.13951
天津海铁联捷国际物流有限公司,客户经理 Key account manager,物流经理,4.5-6千/月,5.25,天津市和平区兴安路环球金融中心1613室,和平区,117.198891,39.13951
中信国安盟固利动力科技有限公司,区域订单专员,物流专员,6-8千/月,7,九园工业区,北辰区,117.44258,39.452277
万享供应链管理（天津）有限公司,国际物流销售,物流专员,3-4.5千/月,3.75,小白楼解放北路188号信达广场3009-3010,和平区,117.224435,39.123687
万享供应链管理（天津）有限公司,进口供应链管理专员,物流专员,3-6千/月,4.5,小白楼解放北路188号信达广场3009-3010,和平区,117.224435,39.123687
万享供应链管理（天津）有限公司,销售,物流专员,3-4.5千/月,3.75,小白楼解放北路188号信达广场3009-3010,和平区,117.224435,39.123687
万享供应链管理（天津）有限公司,进口货运代理专员(职位编号：5),物流专员,3-6千/月,4.5,小白楼解放北路188号信达广场3009-3010,和平区,117.224435,39.123687
万享供应链管理（天津）有限公司,进口物流专员(职位编号：1),物流专员,3-6千/月,4.5,小白楼解放北路188号信达广场3009-3010,和平区,117.224435,39.123687
美菜网,分拣组长,物流专员,4-6千/月,5,天津市北辰区交通集团城市物流配送中心,北辰区,117.172458,39.215325
天津链家宝业房地产经纪有限公司辰昌道店,链家储备主管 带薪年假 出国游,仓库主管,1-1.5万/月,12.5,长瀛里商业广场肯德基旁,北辰区,,
上海上嘉供应链管理有限公司,仓库经理,仓库经理,1-1.5万/月,12.5,武清开发区泉秀路20号（丰树天津武清物流园）,武清区,117.06537,39.424142
本来生活网,仓配经理,仓库经理,0.8-1万/月,9,天津西青区工业大学软件学院A8504,西青区,117.113679,39.075004
北京普罗格科技股份有限公司,物流仓储副经理/综合主管,仓库主管,0.8-1万/月,9,天津市武清区京滨工业园菜鸟网络4号库,武清区,116.796014,39.55822
跨越速运集团有限公司,仓储专员,仓库管理员,0.8-1万/月,9,海泰发展六道星企中心研发楼六楼,西青区,,
美菜网,仓库经理,仓库经理,0.8-1.2万/月,10,天津市北辰区交通集团城市物流配送中心,北辰区,117.172458,39.215325
唐山中陶实业有限公司,仓库经理,仓库经理,0.6-1万/月,8,路北区天元里商业211号,河北区,,
哈出行（哈罗单车hellobike）,高级仓库管理专员 (MJ003692),仓库管理员,0.5-1万/月,7.5,闵行区秀文路898号西子国际中心1栋5楼,闵行区,121.370428,31.128556
与德通讯技术有限公司,仓库主管,仓库主管,2-2.5万/月,22.5,深圳市南山区中山园路1001号TCL国际E城F1栋三楼,南山区,113.934936,22.577734
屈臣氏个人用品商店有限公司,库存主管/高级主管,仓库主管,0.8-1万/月,9,天津市西青区王稳庄镇赛达工业园普洛斯A3仓,西青区,117.2383,39.013483
日邮汽车物流（中国）有限公司,仓库主管warehouse supervisor,仓库主管,0.8-1万/月,9,天津港环球滚装码头,滨海新区,117.771278,39.026383
美团点评,美团点评仓储经理,仓库经理,1-1.8万/月,14,当地办公室,河北区,,
川崎振华物流（天津）有限公司,仓储部副经理,仓库经理,0.8-1万/月,9,天津港保税区海滨三路92号,滨海新区,117.775829,39.00863
赫基集团－厂部,高级仓库主任,仓库管理员,0.8-1万/月,9,崔黄口镇电子产业园宏兴道二号（赫基产业园）,武清区,117.198103,39.534271
唯品会（中国）有限公司,仓储运营助理/专员(10233)(职位编号：022392),仓库管理员,0.8-1万/月,9,肇庆大旺物流园,广宁县,112.842911,23.336845
上海上嘉供应链管理有限公司,仓库经理,仓库经理,1-1.5万/月,12.5,天津市武清开发区泉秀路20号（丰树天津武清物流园）,武清区,,
震坤行工业超市（上海）有限公司,仓储主管(职位编号：ZKH000793),仓库主管,0.8-1.2万/月,10,翠源道2号普洛斯武清现代服务产业园A4-U3,武清区,117.065252,39.423958
震坤行工业超市（上海）有限公司,仓储运作主管(职位编号：ZKH000795),仓库主管,0.8-1万/月,9,翠源道2号普洛斯武清现代服务产业园A4-U3,武清区,117.065252,39.423958
新康众集团,仓储主管（天津TDC仓）,仓库主管,0.7-1万/月,8.5,主城区,河北区,117.218296,39.12317
上海无忧供应链管理有限公司,仓库经理,仓库经理,0.8-1万/月,9,天津市北辰区高新大道景观路青年公寓412号,北辰区,,
埃克森（天津）实业集团有限公司,仓储物流经理,仓库经理,0.8-1万/月,9,天津市武清区崔黄口镇电子商务产业园兴广路1号,武清区,117.169976,39.527598
上海艾杰飞人力资源有限公司,日企需给课经理(编号107779) 日语英语必须,仓库经理,0.8-1万/月,9,天津,河北区,117.205914,39.090908
仕迪亚（北京）商务咨询有限公司,物流营业担当/系长-日语,物流经理,0.5-1万/月,7.5,第二大街,滨海新区,117.73331,39.023963
天津亚东国际货运有限公司,国内物流仓储事业部总经理,物流经理,1-1.5万/月,12.5,凯旋门大厦A座30层E,河西区,117.223689,39.120693
库房无忧,物流专员 包住（天津津南）,物流专员,0.8-1.5万/月,11.5,天津市津南区双港镇联东U谷总部大观5号楼A座2313,津南区,117.308161,39.022538
迈捷环球货运代理（天津）有限公司,物流货代销售主管,物流主管,0.8-1万/月,9,南京路189号津汇广场1座904,和平区,117.20425,39.123895
北京必胜客比萨饼有限公司天津分公司,百胜中国外送城市经理,物流经理,1.5-2万/月,17.5,东马路129号仁恒置地写字楼F16-F17,南开区,117.199152,39.144776
北京普罗格科技股份有限公司,物流仓储副经理/综合主管,物流经理,0.8-1万/月,9,天津市武清区京滨工业园菜鸟网络4号库,武清区,116.796014,39.55822
索科纳（天津）新材料科技有限公司,物流工程师,物流专员,0.8-1万/月,9,天津空港经济区,东丽区,117.398245,39.160477
中兴能源,南亚片区物流经理(职位编号：CC194769718J00105484212),物流经理,1.5-2万/月,17.5,华苑智慧山南塔,西青区,117.128288,39.098788
卓集送信息科技（武汉）有限公司,KA大客户经理（物流）,物流经理,0.6-1万/月,8,天津市 西青区 精武镇 创新道32号(津涞公路与工西路交口) 天津电商城（3楼B1--3013）,西青区,117.114121,39.050026
天津航星国际货运代理有限公司,美洲部主管,物流主管,0.8-1万/月,9,天津市和平区贵州路18号君悦大厦B座4 层,和平区,117.200044,39.11841
上海上嘉供应链管理有限公司,仓储经理,仓库经理,0.8-1.3万/月,10.5,武清开发区泉秀路20号（丰树天津武清物流园）,武清区,,
新康众集团,仓储主管（天津TDC仓）,仓库主管,0.7-1万/月,8.5,主城区,河北区,117.218296,39.12317
北京博华物流有限公司,办事处经理,物流经理,0.7-1.2万/月,9.5,东丽区津北公路财城公寓4号楼202室,东丽区,117.345187,39.115055
上海万创危险品物流有限公司,运作基地负责人,物流专员,0.8-1万/月,9,河东区,河东区,117.258694,39.134554
日邮物流（中国）有限公司,AFF Manager 空运经理（天津）,物流经理,1-1.5万/月,12.5,天津市和平区南京路75号国际大厦,和平区,117.215811,39.121896
地中海捷运物流（上海）有限公司,装箱部经理,物流经理,0.8-1万/月,9,跃进路3658号,东丽区,117.754191,39.032227
上海天地汇供应链管理有限公司,业务拓展经理（天津+五险一金+补贴+高额提成+拟上市）,物流经理,0.6-1万/月,8,天津市西青区中北镇节能大厦9楼,西青区,117.082519,39.131251
麦格纳汽车镜像（天津）有限公司,物流主管,物流主管,1-1.5万/月,12.5,天津空港经济区中环西路491号,东丽区,117.410005,39.131567
上海建发物资有限公司,物流管理员,仓库管理员,0.8-1万/月,9,天津市河西区围堤道53号丽晶大厦,河西区,117.22574,39.099241
苏美达国际技术贸易有限公司,管理培训生-物流方向(职位编号：sumecitc000677),物流经理,0.8-1万/月,9,津滨大道57号万达广场,河东区,117.263418,39.129316
安纽希（天津）婴幼儿食品科技有限公司,供应链中心总监,供应链总监,0.8-1万/月,9,南马路11号,和平区,117.195429,39.14188
美菜网,仓储经理/高级经理（天津）,仓库经理,0.9-1.8万/月,13.5,交通集团城市物流配送中心美菜网仓库,北辰区,,
厦门象屿速传供应链发展股份有限公司,进口物流总监（大宗商品）,物流总监,1-1.5万/月,12.5,（如匹配岗位需求，工作地点可沟通）,河北区,,
万达杰诚国际货运代理（天津）有限公司,海运部经理,物流经理,1-1.5万/月,12.5,解放南路256号泰达大厦21层A座,河西区,117.227835,39.119247
深圳市宝能投资集团有限公司,进口生鲜运营经理（宝能物流集团）(职位编号：baoneng002935),物流经理,1-1.5万/月,12.5,天津市,河北区,117.20952,39.093669
绝味食品天津子公司,物流总监,物流总监,1-3万/月,20,朱行镇金山工业园金舸路1218号,河北区,121.347358,30.836244
长春一汽富维汽车零部件股份有限公司天津冲压件分公司,物流工程师,物流专员,0.8-1万/月,9,天津市北辰区经济技术开发区兴河路与永信道交口,北辰区,,
厦门华商经纬物流有限公司,分公司经理,物流经理,0.7-1万/月,8.5,天津市和平区兰州道金德园1号楼608,和平区,117.197517,39.123934
埃克森（天津）实业集团有限公司,仓储物流经理,物流经理,0.8-1万/月,9,天津市武清区崔黄口镇电子商务产业园兴广路1号,武清区,117.169976,39.527598
上海通富国际物流有限责任公司,分公司副经理,物流经理,0.8-1万/月,9,天津市河西区大沽南路501号恒华大厦1-1505,河西区,117.230755,39.110201
宇培供应链管理有限公司,物流经理,物流经理,1.5-2万/月,17.5,泰华路与福运道交界,西青区,,
广海集团,华北区域经理,物流经理,0.8-1.2万/月,10,新港三号路紫云园23栋2门306,滨海新区,117.707823,39.015201
密尔克卫化工供应链服务股份有限公司天津分公司,配送经理,物流经理,1-1.5万/月,12.5,天津市河东区天津河东区十一经路天星河畔广场,河东区,117.228649,39.125681
优诺（天津）服装有限公司,服装制造供应链总监,物流总监,2-2.5万/月,22.5,天津市西青区兴华十支路5号,西青区,117.212074,39.026904
天津东疆港大冷链商品交易市场有限公司,物流中心经理,物流经理,0.6-1.2万/月,9,东疆保税港区邯郸道601号,滨海新区,117.810613,39.018115
上海找钢网信息科技股份有限公司,中级运营专员,物流专员,1.5-1.8万/月,16.5,天津市北辰区顺义道中储大楼101-108室,北辰区,117.172934,39.209061
上海华通行供应链管理有限公司,分公司/分支机构经理,物流经理,0.6-1万/月,8,天津市西青区中北镇中北大道与星光路交口节能大厦20层K,西青区,117.082703,39.130409
天津品骏物流有限公司,城市经理/网络管理主管,物流经理,0.7-1万/月,8.5,宏达道唯品会电子商务中心,武清区,117.161357,39.522126
北京乐卡车联科技有限公司,城市经理,物流经理,1-1.5万/月,12.5,自主,河北区,117.180491,39.116641
上海细微信息咨询有限公司,物流销售,物流专员,0.6-1.2万/月,9,津围公路华北集团成邦物流园锦福乐购物中心1层德克汉堡,北辰区,117.234524,39.236454
雪佛龙中国下游业务,Logistics Manager,物流经理,1.8-3.5万/月,26.5,No. 32,河北区, Free Trade Zone, Eastern Road
天津金永达装饰工程服务部,物流总监(职位编号：023),物流总监,0.5-2.5万/月,15,世纪都会,和平区,117.205864,39.12329
江苏正天物流有限公司,区域物流经理,物流经理,1.5-2万/月,17.5,西青区奥森物流A区向西100米杨柳青八街正天物流,西青区,117.064407,39.155066
北京一采通信息科技有限公司,实施项目经理,物流经理,1.3-1.8万/月,15.5,天津市南开区南城街富力城天霖园4-2-802,南开区,117.181263,39.147402
广州一智通供应链管理有限公司,运力经理/总监,物流总监,1-1.5万/月,12.5,天津,河北区,117.209523,39.093668
小黄狗环保科技有限公司,铁骑规划主管/专员 (MJ000554),物流专员,0.5-1万/月,7.5,莞太路民间众创金融街2号楼17楼,滨海新区,113.745371,23.015837
万享供应链管理（天津）有限公司,国际物流销售经理,物流经理,0.8-1.5万/月,11.5,小白楼解放北路188号信达广场3009-3010,和平区,117.224435,39.123687
安吉广源物流有限公司,普工跟单员保安,物流专员,0.8-1万/月,9,太平洋广场,河北区,121.545755,31.318439
沈阳华才网络咨询有限公司,物流仓储管理 海外雇主直招 可移民非外派,仓库管理员,1-4万/月,25,，新加坡，澳大利亚，丹麦,河北区,113.26237,23.151408
卖好车,仓储区域经理,物流经理,0.8-1.5万/月,11.5,天津市塘沽保税区开利大厦,滨海新区,117.76246,39.010565
北京东方兴贸国际货运代理有限公司,国际物流项目经理,物流经理,0.8-1万/月,9,CBD万达广场,河东区,120.38548,36.094437
饿了么,物流高级经理（华北大区）,物流经理,40-60万/月,500,天津市河西区小白楼富力中心A1405,河西区,117.223424,39.118432
库房无忧,物流专员 包住（天津武清）,物流专员,0.8-1.5万/月,11.5,天津市武清区杨村镇振华路与建国北路交叉口君利商厦D座801-2室,武清区,117.075508,39.378461
天津亚东国际货运有限公司,进口操作部经理,物流经理,1.5-2万/月,17.5,凯旋门大厦A座30层E,河西区,117.223689,39.120693
四川物联亿达科技有限公司,物流配送经理/主管,物流经理,0.6-1万/月,8,天津市,河北区,117.20952,39.093669
卓集送信息科技（武汉）有限公司,物流大客户经理,物流经理,0.5-1万/月,7.5,天津市 西青区 精武镇 创新道32号(津涞公路与工西路交口) 天津电商城（3楼B1--3013）,西青区,117.114121,39.050026
卓集送信息科技（武汉）有限公司,（互联网平台）物流经理(职位编号：2),物流经理,0.6-1万/月,8,天津市 西青区 精武镇 创新道32号(津涞公路与工西路交口) 天津电商城（3楼B1--3013）,西青区,117.114121,39.050026
卓集送信息科技（武汉）有限公司,（020）物流大客户经理(职位编号：1),物流经理,0.6-1万/月,8,天津市 西青区 精武镇 创新道32号(津涞公路与工西路交口) 天津电商城（3楼B1--3013）,西青区,117.114121,39.050026
天津航星国际货运代理有限公司,美洲部负责人,物流主管,0.8-1万/月,9,天津市和平区贵州路18号君悦大厦B座4 层,和平区,117.200044,39.11841
天津蓝储国际物流有限公司,市场业务员(职位编号：002),物流专员,0.2-1万/月,6,天津市东丽区华明镇北于堡工业区蓝储物流,东丽区,,
天津瀚诺威国际物流有限公司,CSR/操作经理,物流经理,0.5-1万/月,7.5,临港经济区,河北区,117.722029,38.962197
深圳市中海通物流股份有限公司,货代项目经理,物流经理,0.6-1万/月,8,成都道与西康路交口赛顿中心C座1903室,和平区,117.198936,39.112582
上海艾杰飞人力资源有限公司,日企需给课经理(编号107779) 日语英语必须,物流经理,0.8-1万/月,9,天津,河北区,117.205914,39.090908
上海无忧供应链管理有限公司,仓库经理,仓库经理,0.8-1万/月,9,西青区,西青区,117.014408,39.148727
谷山企业管理咨询（天津）有限公司,仓储物流部经理,物流经理,0.8-1万/月,9,天津经济开发区汉沽现代产业区彩云东路58号,滨海新区,,
上海天地汇供应链管理有限公司,储备干部（运营调度）,物流专员,0.6-1万/月,8,天津市西青区京福公路与紫阳道交口天地汇铭达公路港,北辰区,,
天津永顺丰国际物流有限公司,驻海外人员海运操作,物流专员,0.6-1.2万/月,9,南开三马路与长江道交口金融街中心A座2006-2007,南开区,117.180021,39.129026
天津宝涞精工集团股份有限公司,仓储物流经理（宝坻区）,物流经理,0.8-1万/月,9,天津市宝坻区牛家牌镇福顺路8号,宝坻区,117.298269,39.533585
美菜网,仓储经理/高级经理（天津）,仓库经理,0.9-1.8万/月,13.5,交通集团城市物流配送中心美菜网仓库,北辰区,,
美菜网,质控经理（天津-仓储）,物流经理,1-1.5万/月,12.5,交通集团城市物流配送中心美菜网仓库,北辰区,,
美菜网,配送运营经理（华北大区）,物流经理,1-1.5万/月,12.5,阿里山路平安不动产物流园B4美菜办公室,河北区,,
厦门象屿速传供应链发展股份有限公司,出口项目总监/经理,物流总监,0.8-1.5万/月,11.5,（如匹配岗位需求，工作地点可沟通）,河北区,,
厦门象屿速传供应链发展股份有限公司,物流管控专员/主管,物流专员,0.6-1万/月,8,（上海、天津、厦门）,河北区,,
厦门象屿速传供应链发展股份有限公司,内贸海运物流业务总监/经理,物流总监,1-1.5万/月,12.5,厦门市湖里区国际航运中心,湖里区,118.100178,24.516194
上海找钢网信息科技股份有限公司,中级运能专员,物流专员,1.2-1.5万/月,13.5,天津北辰区顺义道中储大厦103-107,北辰区,117.172934,39.209068
上海找钢网信息科技股份有限公司,初级运能专员,物流专员,0.8-1万/月,9,天津市东丽区钢管公司轻轨站对面大无缝众创基地5楼,东丽区,117.408677,39.079398
天津奥尔森物流有限公司,调度经理―工作地点大港,物流经理,0.8-1.2万/月,10,天津市大港区大港炼油厂北侧200米,滨海新区,117.510517,38.729991
海斯坦普汽车组件（天津）有限公司,物流经理 Logistics Manager,物流经理,0.8-1万/月,9,开源道22号,红桥区,117.065226,39.405467
美团点评,物流经理,物流经理,0.5-1万/月,7.5,美团,河北区,117.275644,39.134746
美团点评,物流主管,物流主管,0.6-1.5万/月,10.5,美团,河北区,117.275644,39.134746
美团点评,品控主管,物流主管,0.6-1.2万/月,9,天津市河东区,河东区,117.258413,39.134487
北京长久物流股份有限公司,安全经理,物流经理,0.6-1万/月,8,天津市津南区双桥河镇双桥开发区外津储运,津南区,117.452616,38.997153
蓝海宏业（天津）物流有限公司,专线经理,物流经理,0.8-1万/月,9,华明镇北于堡（津芦线）3099号蓝盟物流园内,东丽区,117.395046,39.228371
美菜网,仓储运营经理（天津、沈阳、大连、石家庄就近分配）,仓库经理,1-1.5万/月,12.5,交通集团城市物流配送中心美菜网仓库,北辰区,,
美菜网,仓储运营经理（天津）,仓库经理,1-1.3万/月,11.5,交通集团城市物流配送中心美菜网仓库,北辰区,,
天津泽元信息技术有限公司,物流经理,物流经理,0.8-1.2万/月,10,大港轻纺经济区轻一街1113号（元顺物流）,滨海新区,117.728939,39.051035
天津泽元信息技术有限公司,物流（业务）经理,物流经理,0.8-1.2万/月,10,大港轻纺经济区轻一街1113号（元顺物流）,滨海新区,117.728939,39.051035
天津阿克苏诺贝尔过氧化物有限公司,车队主管,物流主管,1-1.5万/月,12.5,天津市北辰区外环线24.5公里处西侧,北辰区,,
北京突破电气有限公司,供应链经理,供应链经理,1-1.5万/月,12.5,天津滨海高新区滨海科技园高新二路197号,东丽区,,
施维雅（天津）制药有限公司,供应链主管,供应链主管,0.8-1.5万/月,11.5,天津市经济技术开发区第十大街12号,滨海新区,117.705847,39.074454
美团点评,配送经理,物流经理,1-1.8万/月,14,当地办公室,河北区,117.827599,39.247403
绫致时装（天津）有限公司,运输经理,运输经理,2-2.5万/月,22.5,天津市武清开发区泉秀路9号,武清区,117.05939,39.395678
密尔克卫化工供应链服务股份有限公司天津分公司,海运部副经理,物流经理,0.8-1万/月,9,天津市河东区天星河畔广场1809,河东区,117.22865,39.12568
密尔克卫化工供应链服务股份有限公司,管理培训生（天津）,物流专员,0.8-1万/月,9,天津市河东区天津河东区十一经路天星河畔广场,河东区,117.228649,39.125681
中国天辰工程有限公司,仓储工程师,物流专员,0.8-1万/月,9,京津路1号,北辰区,117.171556,39.19259
天津品骏物流有限公司,运输经理,运输经理,0.8-1.2万/月,10,天津市武清区大碱厂镇国家电网对面河北品骏物流有限公司,河东区,117.099417,39.474308
保定钞票纸业有限公司,物流管理,物流专员,0.8-1万/月,9,保定市竞秀区盛兴西路2166号,新市区,115.432067,38.903368
天津经纬恒润科技有限公司,库存计划工程师,物流专员,0.8-1万/月,9,赛达国际工业城C6/C7,西青区,117.232225,38.978033
美团点评,美团点评配送经理(职位编号：5496),物流经理,1-1.8万/月,14,当地办公室,河北区,117.827599,39.247403
恩知瑞安集团,供应链经理,供应链经理,1-1.5万/月,12.5,天津市空港经济区东七道2号中兴产业基地8号楼三层,东丽区,117.416998,39.148188
唐山中陶实业有限公司,仓库经理,仓库经理,0.6-1万/月,8,路北区天元里商业211号,河北区,,
北京长久物流股份有限公司,车队经理,运输经理,0.6-1万/月,8,天津市津南区双桥河镇双桥开发区外津储运,津南区,117.452616,38.997153
沈阳华才网络咨询有限公司,国际贸易 海外雇主直招 可移民非外派,物流专员,1-4万/月,25,，新加坡，澳大利亚，丹麦,河北区,113.26237,23.151408
上海艾杰飞人力资源有限公司,日企物流部主管/副科长(编号107387) 日语必须,物流主管,1-1.3万/月,11.5,天津,河北区,117.205914,39.090908
上海艾杰飞人力资源有限公司,日企需给部高级经理（SCM）(编号107717) 日语必须,物流经理,1.6-2.5万/月,20.5,天津,河北区,117.205914,39.090908
美团点评,B2B配送经理,物流经理,1-1.8万/月,14,当地办公室,河北区,117.827599,39.247403
天狮集团有限公司,供应链优化经理(J10539),供应链经理,1-1.5万/月,12.5,天津市武清开发区新源道18号天狮国际健康产业园,武清区,117.02486,39.437302
绫致时装（天津）有限公司,运输经理,运输经理,2-3万/月,25,光华路9号世贸天阶D座15层,河东区,116.459954,39.921932
上海艾杰飞人力资源有限公司,日企物流担当(编号101124) 日语必须,物流专员,0.6-1万/月,8,天津,河北区,117.205914,39.090908
保定钞票纸业有限公司,一般管理岗,仓库管理员,0.8-1万/月,9,保定市竞秀区盛兴西路2166号,新市区,115.432067,38.903368
天津经纬恒润科技有限公司,交管工程师/销售内勤,物流专员,0.6-1万/月,8,赛达国际工业城C6,西青区,117.232225,38.978035
沈阳华才网络咨询有限公司,供应链管理 海外雇主直招 可移民非外派,供应链经理,1-4万/月,25,天津,河北区,113.26237,23.151408
北京大清生物技术股份有限公司,仓储管理员,仓库管理员,4-5万/年,3.75,经济技术开发区赛达国际工业城D6-1,西青区,117.232225,38.978033
招商路凯（中国）投资控股有限公司,OPS-营运助理-(职位编号：000887),仓库管理员,6-8万/年,5.835,合兴路招商路凯天津东丽营运中心,东丽区,117.274401,39.241979
招商路凯（中国）投资控股有限公司,OPS-营运助理-仓库物流(职位编号：loscam000749),仓库管理员,6-8万/年,5.835,北京,#N/A,116.413554,39.911013
上海中远威治罐箱物流有限公司,Sales Manager/销售经理,物流经理,20-30万/年,20.835,天津市南京路20号金皇大厦3209室,河西区,117.227319,39.119027
天津市花开远方教育信息咨询有限公司,打包专员,物流专员,8-10万/年,7.5,恒生科技园35栋,津南区,117.302941,39.021211
中邮物流有限责任公司上海营运分中心,物流操作员,物流专员,6-8万/年,5.835,高新七路滨海航天城,滨海新区,117.542249,39.129231
上海泰盛制浆（集团）有限公司,天津物流经理(生产基地),物流经理,15-20万/年,14.585,轻纺经济区二街,滨海新区,,
广东都市物流科技有限公司,物流销售经理,物流经理,10-15万/年,10.415,天津市武清区京滨工业园古旺路26号,武清区,116.834369,39.560609
天津泰连达国际货运代理有限公司,职业经理,物流经理,3-4万/年,2.915,天津滨海新区开发区第二大街MSD写字楼,滨海新区,117.712651,39.029482
广东都市丽人实业有限公司,物流销售经理（天津）,物流经理,20-30万/年,20.835,天津市武清区京滨工业园都市丽人,武清区,116.823368,39.555292
天津畅联供应链管理有限公司,精益工程师,物流专员,10-15万/年,10.415,武清区武清开发区福源道33号,武清区,117.066242,39.410302
大众一汽平台零部件有限公司天津分公司,物流段长,物流专员,8-10万/年,7.5,天津市宁河区,宁河县,117.831139,39.337
基华物流上海有限公司,物流方案设计师,物流专员,15-30万/年,18.75,经济开发区,河北区,117.365966,39.082579
天津瑞才人力资源有限公司,物流经理-日资生产型企业,物流经理,30-50万/年,33.335,天津开发区,滨海新区,117.687681,39.038857
天津信鸿医疗科技股份有限公司,供应链总监,供应链总监,10-15万/年,10.415,东丽区华明低碳产业基地,东丽区,117.356858,39.173563
天津市甄智协尔企业管理咨询有限公司,知名国有企业招聘物流项目总监(职位编号：3319),物流专员,60-80万/年,58.335,开发区,河北区,117.550407,39.097212
梅州市梅县区客家梅县腌面餐饮连锁管理有限公司,供应链总监,供应链总监,30-40万/年,29.165,梅县区人民广场,宝坻区,116.085588,24.283404
大连联航集运船务代理有限公司天津一分公司,业务主办(职位编号：002),物流专员,8-10万/年,7.5,天津市和平区大沽北路65号，金融中心-汇金中心2302,和平区,117.211245,39.135083
天津亚东国际货运有限公司,市场运营部经理,物流经理,15-20万/年,14.585,凯旋门大厦A座30层E,河西区,117.223689,39.120693
天津亚东国际货运有限公司,客服部经理年薪20万,物流经理,10-15万/年,10.415,凯旋门大厦A座30层E,河西区,117.223689,39.120693
天津市花开远方教育信息咨询有限公司,物流专员,物流专员,8-10万/年,7.5,恒生科技园35栋,津南区,117.302941,39.021211
天津市花开远方教育信息咨询有限公司,物流专员,物流专员,8-10万/年,7.5,恒生科技园35栋,津南区,117.302941,39.021211
天津市花开远方教育信息咨询有限公司,物流专员,物流专员,8-10万/年,7.5,恒生科技园35栋,津南区,117.302941,39.021211
天津市花开远方教育信息咨询有限公司,物流专员,物流专员,8-10万/年,7.5,恒生科技园35栋,津南区,117.302941,39.021211
天津市花开远方教育信息咨询有限公司,物流专员,物流专员,8-10万/年,7.5,恒生科技园35栋,津南区,117.302941,39.021211
天津畅联供应链管理有限公司,单证主管,物流主管,8-10万/年,7.5,武清区武清开发区福源道33号,武清区,117.066242,39.410302
天津畅联供应链管理有限公司,物流分析师（精益）,物流专员,10-15万/年,10.415,武清区武清开发区福源道33号,武清区,117.066242,39.410302
大众一汽平台零部件有限公司天津分公司,物流库管员,物流专员,8-10万/年,7.5,天津市宁河区,宁河县,117.831139,39.337
天津信鸿医疗科技股份有限公司,物流中心主管（医疗器械方向）,物流主管,8-10万/年,7.5,东丽区华明低碳产业基地,东丽区,117.356858,39.173563
天津畅联供应链管理有限公司,物流质量主管,物流主管,8-10万/年,7.5,武清区武清开发区福源道33号,武清区,117.066242,39.410302
有范（天津）商贸有限公司,日薪200 打包分拣员,搬运工,200元/天,4.25,津塘路与十五经路交口处,河东区,117.241858,39.129643
天津德汇宝商贸有限公司,仓库库管,仓库管理员,,,万发科技园,北辰区,39.28154331,117.2373756
天津中辰自动化设备有限公司,配件库管,仓库管理员,3-4.5千/月,3.75,天津市东丽区金桥工业园亿达路8号,东丽区,39.10933856,117.4190877
天津展晨化工贸易有限公司,仓库管理员,仓库管理员,3-4.5千/月,3.75,西堤头镇,北辰区,39.29771459,117.33078
天津卡利欧玛热能设备制造有限公司,仓库管理员,仓库管理员,4.5-6千/月,5.25,天津市宝坻区天宝工业园区,宝坻区,39.615544,117.4114206
北京畅速快递有限公司,天津仓配包装交接组长,仓库管理员,5-6千/月,5.5,福源道78号  敏华工业城8--6号,武清区,39.42250534,117.0272873
天津费莱瑞思商贸有限公司,仓库管理员,仓库管理员,3.5-4千/月,3.75,天津市东丽区金钟河大街大毕庄工业区,东丽区,39.20119276,117.2599273
天津市中重科技工程有限公司,车间库管员,仓库管理员,3-4.5千/月,3.75,高新大道景祥路16号,北辰区,39.2368311,117.2735331
云骊（上海）电子科技有限公司,仓配管理员(职位编号：clwg000593),仓库管理员,4-6千/月,5,天津,河北区,39.1439299,117.2108131
天津德力塔仪表科技有限公司,机加工库管,仓库管理员,2-3千/月,2.5,宜兴埠七街工业园华科道88号,北辰区,39.22257355,117.2403635
天津市诚瑞丰科技有限公司,仓库管理员,仓库管理员,3-4.5千/月,3.75,大良镇隆良道1号,武清区,39.54193589,117.1153749
天津德普威涂料有限公司,库房文员,仓储管理文员,,,武清区富民开发区C区一经路8号,武清区,39.3216138,117.0998733
上海凯立企业管理有限公司,天津-夜班分拣员-提供住宿-男女不限,仓库管理员,,,天津市宁河区安捷西路2号德邦物流：乘车路线:乘坐570公交车在现代产业园站下车。 联系电话：15921704464 张先生,宁河县,0,0
广东坚朗五金制品股份有限公司,理货员,仓库理货员,4.5-6千/月,5.25,北辰区宜兴埠北辰科技园华泰道8号,北辰区,39.21937808,117.2092441
百世物流科技（中国）有限公司,仓库主管,仓库主管,6-8千/月,7,天津,河北区,39.1439299,117.2108131
天津舜能润滑科技股份有限公司,发货专员,仓库管理员,4-6千/月,5,梅江永旺印力中心111号,西青区,39.14809475,117.0973041
利拉伐（天津）有限公司,Warehouse Supervisor/仓库主管,仓库主管,0.8-1.5万/月,11.5,天津市空港经济区纬十道101号,东丽区,39.16042451,117.420079
天津雅鑫混凝土有限公司,调度员,调度员,4.5-6千/月,5.25,天津市塘沽区杨北公路以南黑猪河桥以南。,滨海新区,39.11363249,117.5718241
上海星饰居国际贸易有限公司,仓库管理员（天津）,仓库管理员,4.5-7千/月,5.75,跃进路1199号（健营先锋工贸园区）,东丽区,39.20348545,117.3044016
吉林精气神有机农业股份有限公司,库管员,仓库管理员,3.8-4.8千/月,4.3,经济开发区北区众品路2号,河北区,39.1439299,117.2108131
天津盛世欣兴格力电器贸易有限公司,开单专员（配件管理）,仓库管理员,3-4.5千/月,3.75,津汉公路宅急送院内,和平区,39.12989402,117.2124202
北京缤歌网络科技有限公司,天津仓管员,仓库管理员,,,水上西路方正山海天,南开区,39.08539228,117.1661849
天津卓诗尼商贸有限公司,仓库配货员/配货工,仓库管理员,4.5-6千/月,5.25,天津市北辰区瑞景国际鞋城,北辰区,39.20938956,117.1315465
天津市创翔电子科技有限公司,仓库管理员,仓库管理员,,,天津南开区兰苑路海泰工房时代3-103,西青区,39.09934034,117.1387124
上海嘉进物流有限公司,东本调达天津CD客服调度,仓库管理员,4-5.5千/月,4.75,赛达二支路13号A2-3库,西青区,38.99286544,117.2662082
天津中晟达科技有限公司,仓库管理员,仓库管理员,2-4千/月,3,中北镇中北工业园阜盛道10增1,西青区,39.15104797,117.0899989
天加空调（天津）有限公司,外协仓管员,仓库管理员,,,天津武清开发区开源道21号,武清区,39.41160917,117.0802722
硕方电子（天津）有限公司,库房主管,仓库管理员,4.5-6千/月,5.25,天津河东区新开路万春美钻大厦3楼301室,河东区,39.15045845,117.2202273
上海赫持货运代理有限公司,天津德邦：夜班分拣员/月薪6千以上,仓库管理员,,,面试乘车路线：天津站做570路公交，在宁河现代产业园公交站下车，联系电话：18016372590 孙先生 微信同号,宁河县,0,0
唯捷城配,物流调度,调度员,6-8千/月,7,天津,河北区,39.1439299,117.2108131
天津格瑞特康生物科技有限公司,仓管/物流管理 底薪4000 双休 福利好,仓库管理员,,,天津华水大厦,红桥区,39.16840753,117.1550482
申克（天津）工业技术有限公司北京分公司,临时工-组装工，库工,仓库管理员,2-8千/月,5,天津市西青开发区赛达工业园18号,西青区,38.97201607,117.2384746
天津信和天成科技有限公司,仓库管理员（五险一金+高温补助）,仓库管理员,,,天津-西青区,西青区,39.03506461,117.1262013
天津市北辰区威速货运代理中心,物流发货员,仓库管理员,4.5-6千/月,5.25,天津市北辰区景海物流园,北辰区,39.20166442,117.1078234
曙光信息产业股份有限公司,库管员(天津）,仓库管理员,4-6千/月,5,海泰华科大街15号,西青区,39.10415803,117.0857387
天津百浩鑫生物科技有限公司,仓库管理文员 纯文职/双休,仓库管理员,,,红桥区,红桥区,39.17062133,117.1622168
天津光电惠高电子有限公司,仓库管理专员,仓库管理员,,,天津市河西区泰山路6号,河西区,39.09327672,117.2362199
天津艾丰齐科技有限公司,库房管理文员/月薪4000+接受实习,仓储管理文员,4.5-6千/月,5.25,天津-和平区,和平区,39.12480884,117.2028137
天津富工电气设备有限公司,仓库管理员,仓库管理员,3-4.5千/月,3.75,双港工业园发港之路5号,津南区,39.0368773,117.3168068
无锡市中卡物流有限公司,调度（天津）,调度员,4.5-7.5千/月,6,天津市西青区王稳庄盛达三支路普洛斯普金物流园,西青区,38.89348498,117.2770747
苏州和阳智能制造股份有限公司,物料专员,仓库管理员,,,经济技术开发区西区中南五街98号,滨海新区,39.06883437,117.7266953
北京埃顿酒店服务有限公司上海第二分公司,仓库经理,仓储经理,0.7-1万/月,8.5,武清开发区,武清区,39.3956782,117.0593897
上海恒坤行贸易有限公司,仓库理货员,仓库理货员,4-5千/月,4.5,阜锦道外环实业21号 （阜锦道与星光路交叉口）,西青区,39.14284803,117.0783408
天津市华维物业服务有限公司,库管,仓库管理员,,,空港,东丽区,39.17415786,117.4053851
东方海外物流（中国）有限公司,仓库管理,仓库管理员,4.5-6千/月,5.25,天津港保税区新港大道101号,滨海新区,39.01110193,117.7735416
天津市迅尔仪表科技有限公司,仓库主管,仓库主管,,,天津市西青区中北工业园（北园）阜锦路外环实业园区12号,西青区,39.15206049,117.1048466
安信联合物流有限公司,车辆管理岗,调度员,6-8千/月,7,临港经济区黄河道2699号（黄河道与渤海28路交口）,静海县,38.83416663,117.0746082
天津市立和工贸有限公司,备品内勤,仓库管理员,,,天津市塘沽区港城大道东路中港城建材市场,滨海新区,39.1151492,117.6128789
上海宝供公路快运有限公司,运力拓展/运力调度专员,调度员,,,各大物流园及货运市场,河北区,39.1439299,117.2108131
天津柯文实业股份有限公司,仓库管理员,仓库管理员,3-4.5千/月,3.75,西青区百川路42号,西青区,39.16994777,117.0971423
美菜网,生鲜经理（天津）,仓储经理,0.8-1.2万/月,10,夏家河子附近,河北区,39.1439299,117.2108131
广州市吉中汽车装饰有限公司,仓库管理员,仓库管理员,3-3.5千/月,3.25,西青开发区赛达四支路7号,西青区,38.98883606,117.2558964
天津皓硕金属制品有限公司,仓库管理员,仓库管理员,3-4.5千/月,3.75,天津市静海区陈官屯镇陈大路18号,静海县,38.82677548,116.9252503
天津市粹品汇食品销售有限公司,库存管理员,仓库管理员,3-5千/月,4,翔纬路249号中粮专卖店,河北区,39.14816669,117.2043375
天津市佰利维科技有限公司,仓库理货员,仓库理货员,3-4.5千/月,3.75,大毕庄五金城D区4栋105,东丽区,39.20493048,117.2840089
跨越速运集团有限公司,物流调度,调度员,3-6.5千/月,4.75,天津东丽区华明EOD总部港D11,东丽区,39.1717186,117.3727991
天津食健科技发展有限公司,仓库管理员,仓库管理员,3-4.5千/月,3.75,河西区洞庭路美年广场4号楼,河西区,39.07994078,117.256064
北京华峰测控技术股份有限公司,库房管理员,仓库管理员,4.5-6千/月,5.25,天津市安正路179号滨旅产业园二区1号楼2门201,滨海新区,39.11362265,117.765261
天津同德展商贸有限公司,采购文员,仓储管理文员,3-3.5千/月,3.25,环外海泰华科一路康远国际E-5,西青区,39.10129351,117.093853
天津鑫茂科技投资集团有限公司,仓库管理员,仓库管理员,3-4.5千/月,3.75,南开区华苑科技园榕苑路1号鑫茂天财酒店,西青区,39.10401441,117.1257485
上海方通车运物流有限公司北京运输分公司,调度专员,调度员,3.5-5千/月,4.25,天津滨海新区第六大街110号天润科技园A312-313,滨海新区,39.04743298,117.7279043
天津泽元信息技术有限公司,仓库文员,仓储管理文员,,,大港轻纺经济区轻一街1113号（元顺物流）,滨海新区,39.0173226,117.7628265
四方华能电网控制系统有限公司,仓库管理员,仓库管理员,2-3千/月,2.5,东丽经济开发区五经路帝达东谷国际8号楼2门2层,东丽区,39.07977843,117.3808132
天津市康科德科技有限公司,押运员,仓库管理员,3-4.5千/月,3.75,天津市武清区梅厂镇福源经济区发源路2号,武清区,39.36927922,117.1996949
浙江东明不锈钢制品股份有限公司,仓库管理员/仓管员/仓管,仓库管理员,3-4.5千/月,3.75,杨柳青镇金盛工业园北园21号厂房,西青区,39.15400183,117.054684
天津市万帆顺食品有限公司,库管,仓库管理员,2-3千/月,2.5,天津市东丽区金钟街跃进路金旺道3号,东丽区,39.20453044,117.3005459
天津众成精彩信息科技有限公司,月均6000采购助理，外贸实习生,仓库管理员,4.5-6千/月,5.25,中新生态城,滨海新区,39.13369239,117.7570075
辉门（常熟）汽车部件有限公司,仓管,仓库管理员,3.5-5千/月,4.25,天津经济技术开发区泰丰路87号,滨海新区,39.06542999,117.7298495
天津生物制品有限公司,养护员,仓库管理员,2-3千/月,2.5,天津市西青区慧谷工业园,西青区,39.03506461,117.1262013
天津市蓝天安保服务有限公司,理货员,仓库理货员,3-4.5千/月,3.75,狮山县,河北区,39.1439299,117.2108131
天津市侨友天使教育信息咨询有限公司,库管,仓库管理员,2-3千/月,2.5,天津市河东区津塘路57号,河东区,39.12409233,117.2450888
浙江大学滨海产业技术研究院,云检医学-仓库管理,仓库管理员,4.5-6千/月,5.25,天津市滨海高新区高新六路39号,滨海新区,39.11388276,117.5177766
天津锡跃科技有限公司,仓库管理员,仓库管理员,3-3.5千/月,3.25,天津市西青经济开发区鑫源道新华四支路口,西青区,38.98049304,117.261448
康龙化成（北京）新药技术股份有限公司,物料管理员04212(000676)(职位编号：Pharmaron000676),仓库管理员,4.5-6千/月,5.25,天津市经济技术开发区西区新业七街,滨海新区,39.06883437,117.7266953
天津乐牙电子商务有限公司,仓库发货员（应届生优先）(职位编号：009),仓库管理员,3-4.5千/月,3.75,天津东丽开发区三纬路108号,东丽区,39.07064924,117.387579
普林特科（天津）标签有限公司,仓库操作,仓库管理员,3-4.5千/月,3.75,赛达国际工业城D10-2厂房,西青区,38.97803307,117.2322249
深圳招商美冷供应链有限公司,运输调度,调度员,4.5-6千/月,5.25,天津市东丽区空港经济区航空路152号,东丽区,39.13335027,117.4186848
天津爱瑞儿企业管理咨询有限公司,仓库管理员,仓库管理员,4.5-6千/月,5.25,天津空港经济区西十道,东丽区,39.13380992,117.4145224
北京骏马东方机械设备有限公司,配件管理（五险一金双休）,仓库管理员,4-6千/月,5,李七庄街蔡台村中兴路,西青区,39.05921131,117.1702734
高博（天津）起重设备有限公司,仓库管理员,仓库管理员,3-4.5千/月,3.75,天津经济技术开发区十三大街58号,滨海新区,39.07733465,117.7499311
虫洞（天津）众创空间有限公司,仓库管理员,仓库管理员,3.5-4千/月,3.75,静海经济开发区北区十亿道8号,静海县,38.93821023,116.9684007
似鸟（中国）投资有限公司,仓库作业员,仓库管理员,3.5-5千/月,4.25,_二支路13,北辰区,39.20920762,117.1941235
天津市华诺通信工程有限公司,仓库管理员,仓库管理员,3-4千/月,3.5,北闸口工业区,津南区,38.959347,117.3903311
力生（天津）国际贸易有限公司,理货员,仓库理货员,2-3千/月,2.5,双港高科技产业园区联东U谷研创园26号楼 (睿科道与慧科路交口),津南区,39.02414218,117.310735
天津千顺科技有限公司,理货员（全勤奖+补助）,仓库理货员,,,红桥区,红桥区,39.17062133,117.1622168
依脉人工智能医疗科技（天津）有限公司,仓库管理员,仓库管理员,3-4.5千/月,3.75,华苑产业区海泰火炬园,西青区,39.08293178,117.0984602
上海曼伦商贸有限公司,电商仓库管理员,仓库管理员,,,天津,河北区,39.1439299,117.2108131
天津赛菲化学科技发展有限公司,叉车搬运工,搬运工,,,曹子里镇正华道2号增1号,武清区,39.44359098,117.1589402
天津市景泰科技发展有限公司,外协调度,调度员,4.5-6千/月,5.25,天津市武清区富民经济区B区,武清区,39.32246165,117.1013706
天津岛津液压有限公司,仓库管理员,仓库管理员,3-4.5千/月,3.75,西青开发区兴华四支华15号,西青区,38.97544869,117.2310438
天津市顺康科技发展有限公司,仓库管理员,仓库管理员,,,小站工业园盛塘路,津南区,38.92017739,117.4227583
上海发网供应链管理有限公司,仓库经理,仓储经理,0.8-1万/月,9,风电产业园永进道132号,北辰区,39.31864984,117.1877236
海纳（天津）弹簧有限公司,仓库管理员,仓库管理员,2-3千/月,2.5,西青区杨柳青农场海纳道2号,西青区,39.17852331,117.104927
上海虹迪物流科技股份有限公司,仓库管理员（天津武清区）,仓库管理员,,,天津新技术产业园区武清开发区泉秀路3号,西青区,39.10349258,117.131966
广州鑫志鸿物流有限公司,操作员-天津,仓库管理员,,,天津武清区崔黄口镇电子产业园宏达道宏光路20号,武清区,39.52253259,117.1622627
美特斯邦威天津分公司,仓储物流业务经理,仓储经理,6-8千/月,7,空港物流中心,河北区,39.1439299,117.2108131
天津市芦台春酒业有限公司,仓库管理员,仓库管理员,3-4.5千/月,3.75,张自忠路海河华鼎大厦,红桥区,39.15322777,117.1986225
立N净水集团,仓管+社保齐全,仓库管理员,3.5-6千/月,4.75,天津和平区多伦道新文化花园新典居3-1-102,和平区,39.13203776,117.191652
五洲荣耀（天津）集团有限公司,仓库管理员,仓库管理员,3-4.5千/月,3.75,天津市河西区围堤道宝钢大厦8层,河西区,39.102912,117.217953
江苏飞力达国际物流股份有限公司,仓管班长,仓库管理员,4-5千/月,4.5,临海工业区,河北区,39.1439299,117.2108131
天津市爱肯化妆品有限公司,仓库管理员,仓库管理员,3-4.5千/月,3.75,南开区西湖道深蓝公寓,南开区,39.12501512,117.164106
宏德集团,仓库管理员,仓库管理员,2-3千/月,2.5,天津津南开发区东区聚英路37号,津南区,39.03849105,117.3090164
天津博益气动股份有限公司,仓库管理员,仓库管理员,3-5千/月,4,天津开发区第九大街80号丰华工业园7号厂区,滨海新区,39.05846406,117.7313344
天津华来科技有限公司,仓库管理员,仓库管理员,2-3千/月,2.5,金平路10号南开华侨创业大厦,南开区,39.12461166,117.1417511
艾博源（天津）科技有限公司,仓库管理员,仓库管理员,2-3千/月,2.5,西青经济开发区兴华四支路6号,西青区,39.15070407,117.0662057
上海新易泰物流有限公司,装卸工搬运工,搬运工,3-4.5千/月,3.75,天津市武清区京津公路东侧8号天津市正阳彩印有限公司院内新易泰物流,河北区,39.16571854,117.2027612
博宇金属股份有限公司,仓库管理员,仓库管理员,2-3千/月,2.5,天津市宜兴镇七街工业园,北辰区,39.22257355,117.2403635
天津市现代天骄农业科技有限公司,叉车工,叉车工,3.5-6千/月,4.75,天津市宝坻区大口屯镇汪台村南（现代天骄科技园）,宝坻区,39.592469,117.2774134
天津康宝美佳家居用品贸易有限公司,仓库打包发货,仓库管理员,,,天津市西青开发区友谊南路111号印力中心写字楼804,西青区,39.03321696,117.2253443
菲尔普斯文化传播,库房管理文员/月薪4000+接受实习,仓储管理文员,4.5-6千/月,5.25,天津市北辰区北辰区文化中心楼,北辰区,39.23009924,117.1428332
天津市平亚制衣厂,仓库管理员/库房,仓库管理员,4-5万/年,3.75,天津市河北区张兴庄聚贤道41号,河北区,39.19321867,117.2181627
打零工（上海）互联网科技有限公司天津分公司,仓库收货主管,仓库管理员,4.5-6千/月,5.25,天津市北辰区小淀,北辰区,39.26476703,117.2350979
天津市康婷生物工程有限公司,包材库主管,仓库管理员,4-6千/月,5,西青开发区,西青区,38.97544869,117.2310438
益嘉物流（天津）有限公司,运输调度,调度员,4.5-6千/月,5.25,天津港保税区津滨大道95号,滨海新区,39.01515668,117.7721039
天津大富班尼路服饰有限公司,货品管理员,仓库管理员,,,天津市和平区滨江道282号,和平区,39.12751757,117.2034462
天津市安通科技有限公司,库房管理员,仓库管理员,,,华裕路27号,东丽区,39.18530108,117.356995
林赛（天津）工业有限公司,库官员,仓库管理员,,,空港经济区环河南路169号,东丽区,39.12524689,117.4226269
天津广播电视报读者生活馆,仓库管理员,仓库管理员,3-4.5千/月,3.75,天津市,河北区,39.1439299,117.2108131
深圳中天精装股份有限公司,仓管员,仓库管理员,4.5-6千/月,5.25,东丽区张贵庄街道天津融创城项目,东丽区,39.09672163,117.3216486
天津万象恒远科技有限公司,仓储统计员,仓储经理,2.8-3.2千/月,3,铁东北路天穆都市产业园西三门旁（原丽海饭店）,北辰区,39.22222336,117.1820926
欧蒙医学诊断（中国）有限公司,仓库主管 Warehouse Supervisor,仓库主管,0.8-1万/月,9,天津市武清开发区创业总部基地,武清区,39.41390899,117.0582058
天津市飞亚电线电缆有限公司,库管,仓库管理员,3-4.5千/月,3.75,天津市南开区新南马路五金城3区32栋3号,南开区,39.13935506,117.1253833
深圳市华夏龙供应链管理有限公司,仓库管理员,仓库管理员,3.5-5.5千/月,4.5,天津市北辰区大张庄镇南王平村村南津围公路东,北辰区,39.34166849,117.2232492
青岛海信电器营销股份有限公司天津分公司,暑期工仓库管理员,仓库管理员,,,天津市南开区金平路4号四方科技大厦B单元302室,南开区,39.12633984,117.1414011
天津亨旺机械有限公司,仓库管理员,仓库管理员,3-4.5千/月,3.75,天津静海开发区北区十亿道3号,静海县,38.9960161,117.0416442
天津田边制药有限公司,仓库库管,仓库管理员,2.5-4千/月,3.25,西青区,西青区,39.03506461,117.1262013
武汉格林美城市矿产装备有限公司,物料采购专员,仓库管理员,2-3千/月,2.5,西青高新区创新六路2号华鼎新区1号25号楼3门,西青区,39.09130618,117.0757236
天津中环电炉股份有限公司,仓库管理员,仓库管理员,2-4千/月,3,天津市北辰经济开发区双川道11号,北辰区,39.28272721,117.1271502
天津市中科健新材料技术有限公司,仓库管理员,仓库管理员,3.5-4千/月,3.75,东丽区五纬路58号,东丽区,39.06690153,117.3623815
天津厚普生物技术开发有限公司,仓库管理员,仓库管理员,3-4.5千/月,3.75,华苑新技术产业园区,西青区,39.09575657,117.13261
大连顺通圣世物流有限公司,现场发运管理,仓库管理员,4-5千/月,4.5,塘沽区,滨海新区,39.00793614,117.6490814
天津鸿翔一心堂医药连锁有限公司,物流专员,仓库管理员,2-3千/月,2.5,天津市河东区十一经路58号,河东区,39.13235492,117.2386081
天津若水企业管理有限公司,养乐多招聘库管要求叉车双证,仓库管理员,4.5-6千/月,5.25,天津滨海新区周边,滨海新区,39.05917664,117.6462863
嘉里会成物流（上海）有限公司,仓储经理,仓储经理,0.8-1万/月,9,华盛道158号,北辰区,39.23551529,117.2380434
天津市飞龙浩德物流有限公司,物流调度,调度员,4-6千/月,5,小淀镇刘安庄工业园北兴物流园旁,北辰区,39.24102823,117.2225262
天津驿源恒泰酒水销售有限公司,搬运工（外地人优先）,搬运工,3.5-4.5千/月,4,天津市红桥区怡闲道,红桥区,39.14905667,117.1681044
天津市江源塑胶制品有限公司,物流员（叉车）,叉车工,3-3.5千/月,3.25,徐官屯工业区永信路1号,武清区,39.40700279,117.0955668
天津市世和科技发展有限公司,仓库管理员,仓库管理员,,,南开区华苑产业园区梓苑路6号B座西侧二楼,西青区,39.10026497,117.1220097
瑞康医药（天津）有限公司,仓库主管,仓库主管,3-4.5千/月,3.75,天津市河北区增产道,河北区,39.16480933,117.2385992
天津光大美居商贸有限公司,搬运工,搬运工,4-5千/月,4.5,大毕庄,东丽区,39.20877701,117.2790681
卡尔迪雅（天津）医疗器械有限公司,仓库管理员,仓库管理员,3-4.5千/月,3.75,华苑产业区兰苑路5号留学生创业园D座二楼,西青区,39.10056322,117.1369113
深圳华特容器股份有限公司天津分公司,仓库管理员,仓库管理员,2.5-4.5千/月,3.5,武清汽车产业园武宁路（梅厂段）749号（忠旺铝业对面）,武清区,39.3920421,117.2436758
信誉通力（天津）信息技术有限公司,库房管理员,仓库管理员,3-4.5千/月,3.75,驯海路,东丽区,39.10235426,117.3521653
锦江麦德龙现购自运有限公司（中国总部）,仓库质检员-天津,仓库管理员,3-4.5千/月,3.75,大良镇,武清区,39.56735987,117.0552818
瑞杰新材料科技股份有限公司,仓库主管,仓库主管,6-8千/月,7,津南八里台工业园建设四支路11号E座,津南区,38.96475092,117.3458092
天津嘉里中心,仓库管理员（物业管理）,仓库管理员,,,天津嘉里中心,河东区,39.13351056,117.2231938
天津北方石油有限公司,值船业务员J18800,仓库管理员,2-3千/月,2.5,经济开发区第三大街金融街西区W2AB-3层,滨海新区,39.03626005,117.7151726
法雷奥西门子电动汽车动力总成（天津）有限公司,仓库工人/叉车工人,叉车工,4-6千/月,5,西青经济技术开发区赛达五支路28号,西青区,38.97869179,117.2738553
天津摩比斯汽车零部件有限公司,仓库资材担当,仓库管理员,3-4.5千/月,3.75,滨海新区九大街十二号,滨海新区,39.06951924,117.7037848
北京华地臻品食品有限公司,仓库管理员,仓库管理员,,,国家产业开发区北财源道14号,武清区,39.40291752,117.0555347
天津睿策立德科技有限公司,库管（南开鲁能购物中心）,仓库管理员,,,鲁能商业中心,河北区,39.1439299,117.2108131
天津顶正印刷包材有限公司,仓库管理员,仓库管理员,3-4.5千/月,3.75,天津经济技术开发区渤海路19号,滨海新区,39.05719679,117.685586
天津市百禧百地工贸有限公司,仓库管理员 底薪4000+,仓库管理员,4.5-6千/月,5.25,华明镇EOD总部港D19-2,东丽区,39.1717186,117.3727991
天津鑫乐诚商贸有限公司,仓库管理员（儿童玩具）,仓库管理员,3-4.5千/月,3.75,天津市东北角壹街区,河北区,39.1439299,117.2108131
隆达尚品（天津）家居用品销售有限公司,仓库管理员,仓库管理员,,,天津市西青区李七庄街王姑娘庄祥云路7号-2,西青区,39.04514468,117.1897433
天津荣石基进出口有限公司,仓库管理员,仓库管理员,3-4.5千/月,3.75,武清开发区泉兴路28号（二小对面）,武清区,39.39474425,117.0623141
韩谊（天津）新材料有限公司,仓储物流主管,仓储经理,4.5-6千/月,5.25,天津子牙循环经济产业园兴惠科技院内,和平区,39.13179092,117.1984434
百士吉泵业（天津）有限公司,资深仓库管理员,仓库管理员,3.5-5千/月,4.25,天津市华苑环外海泰华科二路2号,西青区,39.15054228,117.026691
爱回收,分拣专员,仓库管理员,3-5千/月,4,武清开发区,武清区,39.3956782,117.0593897
兰多湾（天津）商贸有限公司,仓库管理员,仓库管理员,3-4.5千/月,3.75,凌奥创意产业园一期三号楼二楼,南开区,39.07034952,117.1763421
天津笠谷精密机电有限公司,生管助理兼库管,仓库管理员,2-3千/月,2.5,天津市西青开发区建福工业园12号,西青区,39.03038702,117.2057125
北京小易到家电子商务有限公司,仓库管理员,仓库管理员,4.5-6千/月,5.25,天津市和平区南京路131号富玛特大厦A座1101室,和平区,39.12335868,117.2074911
天津市艾福五金商贸有限公司,仓库理货员,仓库理货员,3-4.5千/月,3.75,西青道金盛工业园南园3号,西青区,39.15340497,117.0510796
上海陆家嘴物业管理有限公司天津分公司,仓库管理员,仓库管理员,3-4.5千/月,3.75,陆家嘴广场,红桥区,39.1535872,117.1815622
天津市克兰佰瑞自行车股份有限公司,仓库管理员,仓库管理员,3-4.5千/月,3.75,天津市武清区王庆坨镇经济开发区,武清区,39.22427972,116.9273321
天津市热联涂层钢板有限公司,销售行政专员,仓库管理员,,,天津西青经济开发区大寺工业园津玮道9号,西青区,39.03059099,117.262914
天津塞科凯尔科技有限公司,库管(000504)(职位编号：demax000504),仓库管理员,2-4千/月,3,武清,武清区,39.45704258,117.0345779
111集团（1药网）,药品验收员（双休/五险一金/住宿补贴）,仓库管理员,3-4.5千/月,3.75,空港区,河北区,39.1439299,117.2108131
天津市陶阳商贸有限公司,仓库理货员,仓库理货员,3-4.5千/月,3.75,丽苑小区秀丽园,东丽区,39.15463543,117.2895627
天津艾克凯胜石墨烯科技有限公司,仓库管理员,仓库管理员,2-4千/月,3,东丽开发区丽新路10号,东丽区,39.07064924,117.387579
中远物流仓储配送有限公司,仓库管理员,仓库管理员,3-4.5千/月,3.75,中远海运仓配有限公司天津,河北区,39.1439299,117.2108131
纳通医疗集团,物流专员/仓管,仓库管理员,3-4.5千/月,3.75,台儿庄南路附近,河西区,39.0859643,117.2668171
浩群（天津）工程科技发展有限公司,仓库管理员(职位编号：004),仓库管理员,2.5-4.5千/月,3.5,天津市西青区天津经济技术开发区泰达微电子工业区中晓工业园3C工厂,西青区,39.00876899,117.2380991
天津金仓互联网科技有限公司,仓库管理员,仓库管理员,2.8-3.5千/月,3.15,北环工业区徐良路1号,静海县,38.96037295,116.949847
天津德晟源国际贸易有限公司,外勤司机仓库管理,仓库管理员,3-4.5千/月,3.75,满江东道,东丽区,39.16841847,117.279624
天津博世丰通科技有限公司,仓库管理员,仓库管理员,3-4.5千/月,3.75,静海经济开发区北区六号路清亮东道1号,静海县,38.93821023,116.9684007
安捷励电控技术南京有限公司,仓管员,仓库管理员,5-7千/月,6,华明大道22号,东丽区,39.17412687,117.3734544
深圳市恒腾网络有限公司,仓储物流专员,仓储经理,6-8千/月,7,天津,河北区,39.1439299,117.2108131
莱恩（天津）门窗有限公司,仓库管理员,仓库管理员,3-4.5千/月,3.75,西平道55号京宝工业园旁,北辰区,39.23569431,117.0876582
红夕阳合一堂,仓库管理员（包住宿）,仓库管理员,2-3千/月,2.5,鞍山西道信诚大厦,南开区,39.11988006,117.1708113
天津开发区大昌物资贸易有限公司,仓库管理员,仓库管理员,,,北辰区铁东北路北方汽贸园,北辰区,39.20905727,117.1923538
天津永全电器制造有限公司,仓库管理员,仓库管理员,2.5-4千/月,3.25,天津北辰科技园区津围公路扩展区华盛道67号,北辰区,39.24059065,117.256633
昱隆昊（天津）激光科技有限公司,仓库管理员,仓库管理员,2-3千/月,2.5,下朱庄街广义路5号,武清区,39.32660202,117.0919909
深圳市崇达电路技术股份有限公司,物控主管,仓库管理员,1-1.5万/月,12.5,大连市开发区光明西街11号,金州区,39.10184728,121.925937
天津利福特电梯部件有限公司,仓库管理员,仓库管理员,3-4.5千/月,3.75,天津西青南河镇工业区鑫谷路2号,西青区,39.03988892,117.102375
天士力医药集团股份有限公司,仓库管理员(职位编号：TASLY001626),仓库管理员,3-4.5千/月,3.75,北辰区普济河东道2号 天士力现代中药城,北辰区,39.21566371,117.2213909
天津市环欧半导体材料技术有限公司,库管员-环欧（项目）(J10435),仓库管理员,,,海洋科技园,河北区,39.1439299,117.2108131
风向（天津）演出经纪有限公司,唱博馆仓库管理文员,仓库管理员,3-4.5千/月,3.75,天津市西青区中北镇万卉路5号环球购物中心4楼唱博馆（台湾馆）,西青区,39.14595996,117.0975103
天津众泰依科技有限公司,仓库管理员,仓库管理员,2-3千/月,2.5,卫国道,河东区,39.14996762,117.2627207
马克华菲（上海）商业有限公司,仓库管理员,仓库管理员,3-4.5千/月,3.75,崔黄口镇宏旺道2号,武清区,39.52661469,117.1879741
勇猛机械股份有限公司,生产调度员,调度员,4-6千/月,5,天津市宝坻九园工业园区兴安道6号,宝坻区,39.47764886,117.4307677
天津市美轩吉之岛服饰店,仓库理货员,仓库理货员,4.5-6千/月,5.25,南开区资阳路5号鑫茂民营科技园A座cd单元三楼,南开区,39.12700251,117.1394898
天津顺势永祥商贸有限公司,仓库管理员,仓库管理员,4.5-6千/月,5.25,梨双公路与津港高速交口,西青区,39.02752449,117.2532775
天津鑫天港汽车部件有限公司,仓库管理员(职位编号：06),仓库管理员,3-4.5千/月,3.75,中塘镇中塘路170号,滨海新区,38.83650631,117.3821311
天津扬天科技有限公司,仓库管理员,仓库管理员,3-4.5千/月,3.75,金坪路10号,河北区,39.1439299,117.2108131
天津市润源商贸有限公司,仓库管理员,仓库管理员,3-4.5千/月,3.75,密云路新南马路五金城1区29栋102,南开区,39.14154014,117.131436
华科新能（天津）科技发展有限公司,仓库管理员,仓库管理员,4-6千/月,5,天津市西青区滨海高新区华苑产业区（环外）海泰创新六路2号（华鼎新区1号）19号,西青区,39.09133127,117.0732424
天津市空气压缩机有限公司,车间库管,仓库管理员,,,天津市东丽区一经路与四纬路交口西侧,东丽区,39.07288191,117.3552657
天津市稳特电子有限公司,仓库管理员,仓库管理员,2-4千/月,3,海泰发展二路3号奥利达5楼,西青区,39.08206297,117.1030204
天津市凯美机械有限公司,库工,仓库管理员,3-4.5千/月,3.75,天津市滨海新区汉沽茶淀镇茶东村工业园区2号,滨海新区,39.2369782,117.7698268
捷普集团-日新（天津） 塑胶有限公司,物料管理员- Diecut Business,仓库管理员,3-4.5千/月,3.75,开发区赛达世纪大道21号,西青区,38.97814899,117.259961
天津裕熔供应链管理有限公司,外勤业务员,仓库管理员,4-5千/月,4.5,天津港保税区海滨15路海景大厦813室,滨海新区,39.02951392,117.7512547
天津市金全聚香斋清真食品专业合作社,发货员,仓库管理员,2-3千/月,2.5,圣发道4号增8号,东丽区,39.10744864,117.4230899
福建恒安集团有限公司,仓库管理员,仓库管理员,3-4.5千/月,3.75,天津市西青经济开发区赛达二大道6号,西青区,38.9938654,117.2649324
天津市德通世纪食品贸易有限公司,仓库保管员,仓库管理员,3-4.5千/月,3.75,腾达工业园区兴华十支路3号伊利仓库,西青区,39.02776151,117.211362
天津日标机械科技有限公司,仓库库工(职位编号：02),仓库管理员,2.5-4千/月,3.25,天津市东丽区空港经济区,东丽区,39.16042451,117.420079
天津隆誉源国际贸易有限公司,仓库人员,仓库管理员,2-3千/月,2.5,天津港保税区,滨海新区,39.02031619,117.7648322
天津红日药业股份有限公司（销售公司）,库管员(J11239),仓库管理员,4.5-6千/月,5.25,天津市武清区,武清区,39.45704258,117.0345779
东葛树脂（天津）有限公司,仓库管理员,仓库管理员,3-4.5千/月,3.75,天津新技术产业园区（环外区）海泰东路6号,西青区,39.10349258,117.131966
天津驹马物流有限公司,现场运营调度,调度员,4.5-6千/月,5.25,闸口镇丰泽6大道津顺安平物流园,河北区,39.1439299,117.2108131
北京安信捷达物流有限公司,仓库管理员,仓库管理员,3-4.5千/月,3.75,天津东丽区,东丽区,39.13960464,117.4147823
恩盛德（天津）精密工具贸易有限公司,仓库管理员,仓库管理员,3-4.5千/月,3.75,河东区卫国道与靖江路交口朝花园12-1-102,河东区,39.14880941,117.2505528
深圳市凯依克物流有限公司,仓储副经理/经理,仓储经理,,,空港经济区西十五道与航空路交口,东丽区,39.11617061,117.432343
天津市科威尔宠物用品有限公司,仓库管理员,仓库管理员,4.5-6千/月,5.25,普及河东道与万科花园路交口,北辰区,39.21511371,117.2232106
天津东宇顺油脂股份有限公司,仓库管理员,仓库管理员,3-4万/年,2.9,天津市武清区大碱厂镇杨崔公路与武清城区外环交口（长屯加油站旁）,武清区,39.45396576,117.0927841
天津必佳药业有限公司,仓库管理员,仓库管理员,2-3千/月,2.5,天津市西青经济开发区辛口工业园泰华路38号,西青区,39.08593241,116.9738422
天津锐创环保科技有限公司,仓库管理文员,仓库管理员,3-4.5千/月,3.75,天津市西青区华鼎高科技发展中心（创新六路北）,西青区,39.09039187,117.0741416
广州爱帛服饰有限公司(品牌MO&Co.),仓管员,仓库管理员,4.5-6千/月,5.25,天津市武清区德义道财富兴园国际企业公园附近,武清区,39.33602909,117.089195
天津欧亚床垫家具有限公司,仓库管理员,仓库管理员,2.5-4千/月,3.25,双街镇经济技术开发区双原道4号欧亚床垫,北辰区,39.27790524,117.1212853
安吉智行物流有限公司,调度,调度员,,,王稳庄津淄公路226号,西青区,38.89348498,117.2770747
天津市路征印务有限公司,仓库内勤,仓库管理员,,,天津市西青区华苑环外海泰发展六道6号海泰绿色产业基地B座,西青区,39.08489059,117.102177
天津市赛科希德科技发展有限公司,库房管理员,仓库管理员,3-4.5千/月,3.75,天津市河西区洞庭路16号美年广场2号楼401,河西区,39.07994078,117.256064
神州数码供应链,仓储专业经理,仓储经理,,,八里台工业园区津顺安平物流园,津南区,38.9595976,117.3501209
北京泽坤国际货运代理有限公司,仓库提货员,仓库管理员,3-4.5千/月,3.75,天津市东丽区空港货运有限公司228室,东丽区,39.13960464,117.4147823
安通控股股份有限公司,车辆调度,调度员,4.5-6千/月,5.25,天津市滨海新区塘沽贻航国际5号楼13楼1302室,滨海新区,39.03182976,117.7526463
天津市天健科贸有限公司,仓库文员,仓储管理文员,3-4.5千/月,3.75,南八里台泰达微电子工业区科达一路14号,津南区,38.94859028,117.3615646
天津迪光照明科技有限公司,储备干部,仓库管理员,2-3千/月,2.5,西堤头镇刘快庄永明工业园,北辰区,39.26002762,117.360144
蓝沛科技（天津）有限公司,淘宝打包员 理货员,仓库理货员,3-4.5千/月,3.75,武清开发区卧龙潭别墅,武清区,39.3956782,117.0593897
天津深之蓝海洋设备科技有限公司,仓库管理员,仓库管理员,3-4.5千/月,3.75,开发区睦宁路45号,滨海新区,39.05472443,117.7073474
中铝兴业供应链（天津）有限公司,入库审核员,仓库管理员,3-4.5千/月,3.75,东丽区华明镇EOD总部港C区5号楼,东丽区,39.16929242,117.3736193
天津中侨物流有限公司,仓储主任(天津万林有限公司）,仓储经理,3-4.5千/月,3.75,天津市东丽区杨北建材城,东丽区,39.13960464,117.4147823
天津万立鑫晟新材料技术研究院有限公司,仓库管理员,仓库管理员,3.5-5千/月,4.25,天津市静海县良王庄,静海县,38.98976431,116.9335969
上海伶尔亿环境工程有限公司,仓库管理员,仓库管理员,150元/天,3.3,开发区物海道2号,静海县,38.937526,116.9935171
北京市中建利源物资经营有限责任公司,司磅员,仓库管理员,3-4.5千/月,3.75,天津市津南区李楼道北福昌花园北,津南区,39.06797382,117.3265512
中国通信建设第一工程局有限公司,仓库管理员,仓库管理员,3-4.5千/月,3.75,精武镇,西青区,39.03474214,117.141647
天津九谦物流有限公司,物流专员,仓库管理员,3-4.5千/月,3.75,天津市北辰区津围公路华北集团物流园,北辰区,39.23710311,117.2294386
天津得瑞丰凯新材料科技有限公司,仓库管理,仓库管理员,3-4.5千/月,3.75,西青区赛达工业区天源道9号,西青区,38.90801883,117.2870168
天津和N塑料制品有限公司,仓库账务,仓库管理员,3-4.5千/月,3.75,经济技术开发区西区西北一街19号,滨海新区,39.06883437,117.7266953
天津昕田管道科技有限公司,仓库主管,仓库主管,4.5-6千/月,5.25,天津市静海县大丰堆镇中明村前街6号,静海县,38.90070718,117.018725
天津丙辉建设有限公司,仓库管理员/库管,仓库管理员,3-4.5千/月,3.75,长青科工贸园区重庆街75号长青大厦1210,津南区,39.03264636,117.287166
天津市世纪天宇商贸有限公司,仓库保管员,仓库管理员,2-3千/月,2.5,北辰区朝阳路水泥厂南院,北辰区,39.21716609,117.1708106
广东宝克文具有限公司,天津办事处仓管员(职位编号：yxzx194),仓库管理员,3.5-7.5千/月,5.5,天津市红桥区河北大街与三条石大街交口金领花园5号楼1门－商业104,红桥区,39.15517844,117.1853163
天津威卡威汽车零部件有限公司,仓库管理员,仓库管理员,3-4.5千/月,3.75,天津市西青区同源道7号（王稳庄镇盛达三支路与同源道交口）,西青区,38.97414298,117.2352946
北京中集物流有限公司,物流保管员（库管）,仓库管理员,3-3.5千/月,3.25,陆路港装备产业园陆港三经路5号,北辰区,39.25502621,117.334521
中储南京智慧物流科技有限公司,运力专员（线下调度）,调度员,5-8千/月,6.5,公司所在地为南京；常驻工作地为招聘所在城市（须接受出差）,河北区,39.1439299,117.2108131
天津市合联裕泰商贸有限公司,仓库配货包装员,仓库管理员,,,海泰科技园,河北区,39.1439299,117.2108131
天津爱德斯蒂尔国际贸易有限公司,库管,仓库管理员,3-4.5千/月,3.75,开发区洞庭路160号,河西区,39.08802716,117.2584486
小红书,拣货主管（天津）,仓库管理员,6-8千/月,7,天津自贸试验区（东疆保税港区）宁夏道1088号,滨海新区,39.0181148,117.8106131
诺思（天津）微系统有限公司,仓库管理员,仓库管理员,3-4.5千/月,3.75,天津经济技术开发区西区新环东路新业五街27号,东丽区,39.09720518,117.5504011
环球车享（天津）汽车租赁有限公司,运营调度专员,调度员,4.5-6千/月,5.25,天津经济开发区第二大街泰达大街MSD-G2-104号,滨海新区,39.03420257,117.7058238
天津博恩兴电子有限公司,仓库管理员,仓库管理员,,,西青区边村工业园（大学城理工学院附近）,西青区,39.04839836,117.1496341
天津嘉豪立家科技发展有限公司,搬运工/装卸工,搬运工,,,大毕庄跃进路健营工贸园,东丽区,39.20483918,117.3039844
天津市广冠国际贸易有限公司,诚招聘港口监装现场,仓库管理员,,,第二大街27号国信大厦A-2-405室,滨海新区,39.03622695,117.7011904
天津信达汽车销售服务有限公司,配件库管,仓库管理员,,,天津市西青区中北镇万卉路与卉康道交口,西青区,39.12173433,117.0973406
北方万邦物流有限公司天津分公司,外派理货员,仓库理货员,,,缅甸、刚果金,河北区,39.1439299,117.2108131
天津市永利奇纸品机械有限公司,仓库管理员,仓库管理员,,,静海经济技术开发区南区泰安道富士达南行1500米,静海县,38.88586885,116.9885301
天津中康正标商贸有限公司,仓库管理员,仓库管理员,,,天津市河西区陈塘庄台儿庄路尊华企业基地C1011,河西区,39.0847349,117.2609073
天津市英辰精密模具有限公司,仓库管理员,仓库管理员,3-4.5千/月,3.75,天津市北辰区津围公路华盛道61号,北辰区,39.23966202,117.251067
天津渤海精细化工有限公司,仓库管理员,仓库管理员,,,大港科技产业园区金源路泰和街一号,滨海新区,38.81918601,117.4799971
天津市飞龙砼外加剂有限公司,仓库管理员,仓库管理员,,,双街九园公路飞龙道3号,武清区,39.35264377,117.316567
天津名堂婚纱贸易有限公司,库管,仓库管理员,,,天津和平区福安大街天汇广场B座801,和平区,39.1355503,117.1943772
天津市津电管网安装工程有限公司,仓库管理员,仓库管理员,,,唐口南里,河东区,39.13458353,117.2477909
深圳市北领科技物流有限公司,仓储运营经理,仓储经理,,,天津市宁河现代产业园区安捷西路2号安博天津宁河物流中心1#库,#N/A,39.25754713,117.441857
多喜佳伴纳服饰商业（上海）有限公司（Dolce & Gabbana）,仓库管理员Store Keeper(职位编号：PRC-CNRS-SK),仓库管理员,,,弗罗伦萨小镇,河北区,39.1439299,117.2108131
天津滨海新区兰德食品有限公司,仓库管理员,仓库管理员,,,大港区轻纺经济区纺缘路199号,滨海新区,38.83410029,117.5431662
天津市汇丰企业外包服务有限公司,仓库及物业管理-央企招聘,仓库管理员,,,塘沽海港保税区,滨海新区,39.0141442,117.7693204
佛斯伯机械（天津）有限公司,仓库管理员,仓库管理员,,,精武镇学府慧谷工业园,西青区,39.03474214,117.141647
米德（中国）复合材料有限公司,物流专员,仓库管理员,,,经济技术开发区西区新环西路60号,滨海新区,39.06883437,117.7266953
天津杰福美科技有限公司,仓库内勤文员,仓储管理文员,,,天津市北辰区双口镇双口二村,北辰区,39.248923,117.0389227
天津开发区人力资源服务有限公司,天津鸿泰管业储运部职员,仓库管理员,,,经济技术开发区汉沽现代产业区翠薇街6号,滨海新区,39.077118,117.7165458
天津富洲科技有限公司,仓库管理员,仓库管理员,3-4千/月,3.5,风电产业园永进道118号,北辰区,39.31801778,117.173767
北京航天计量测试技术研究所,计划调度主管,调度员,,,空港经济区,东丽区,39.16042451,117.420079
搜辅网（天津）科技发展有限责任公司,急聘库工/搬运工(职位编号：SFC-TJ-03),搬运工,,,双港石材城对面,津南区,39.04874029,117.3247423
韩童（天津）文化传播有限公司,仓库管理员,仓库管理员,,,张自忠路160号 津门公寓B座1单元2601（瑞吉金融酒店旁边）,和平区,39.13545722,117.2059919
厦门固克涂料集团有限公司,仓库主管,仓库主管,,,天津市宝坻区节能环保开发区天中路与唐通路交口岳家庄变电站北邻居,宝坻区,39.78019031,117.2614617
天津捷通汽车销售有限公司,配件库管员,仓库管理员,,,天津市西青区卫津南路王兰庄家电城南高庄子,西青区,39.05078378,117.2028981
天津泰德力科技有限公司,库管内勤,仓库管理员,,,南开区白堤路248号505室,南开区,39.11028936,117.1616938
天津日进塑料有限公司,仓库管理员,仓库管理员,,,天津市北辰科技园区华盛道61号（华北集团外资园）,北辰区,39.23966202,117.251067
三协无油轴承工业（天津）有限公司,材料仓库管理人员,仓库管理员,1.9-2.8千/月,2.35,西青开发区赛达汇亚工业园12号,西青区,38.98794919,117.2539766
天津兰贝信息科技有限公司,仓库管理员,仓库管理员,1.5千以下/月,,天津市西青区西青道315号金盛工业园增3号,西青区,39.15400159,117.0546842
天津爱尚水环保科技有限公司,库管,仓库管理员,1.5千以下/月,,八里台工业园北邮教授园10号9号楼,津南区,38.95291106,117.3313048
全球国际货运代理（中国）有限公司北京分公司,仓库理货员,仓库理货员,,,和平区南路路189号津汇广场2座,河西区,39.10815285,117.2297332
天津市和平区美丽宝贝儿童摄影店,仓库管理员,仓库管理员,,,天津市南开区城厢中路鼓楼北街19号,南开区,39.14946521,117.1877852
天津久能万德科技有限公司,仓储主管,仓储经理,,,北辰区经济技术开发区优谷新科园137号楼,北辰区,39.21998582,117.0481165
上海凯立企业管理有限公司,天津-夜班搬运工-提供住宿-月薪6k以上,搬运工,,,天津市宁河区安捷西路2号德邦物流：乘车路线:乘坐570公交车在现代产业园站下车。 联系电话：15921704464 张先生,宁河县,0,0
百世物流科技（中国）有限公司,仓储组长,仓库管理员,4.5-6千/月,5.25,空港保税区西二道7号,东丽区,39.15956429,117.3807326
百世物流科技（中国）有限公司,仓储主管,仓储经理,6-8千/月,7,天津市武清开发区高新公寓附近,东丽区,39.13562762,117.4953441
广州市巴图鲁信息科技有限公司,物流钉箱打包员,仓库管理员,,,天津市武清区东马圈镇武落路与大东线交口佩森物流园区,武清区,39.46639857,116.8572391
广州市巴图鲁信息科技有限公司,物流发货员,仓库管理员,,,天津市武清区东马圈镇武落路与大东线交口佩森物流园区,武清区,39.46639857,116.8572391
广州市巴图鲁信息科技有限公司,物流异常处理主管\物流主管,仓库管理员,7.5-9千/月,8.25,天津市武清区东马圈镇武落路与大东线交口佩森物流园区,武清区,39.46639857,116.8572391
天津卓诗尼商贸有限公司,仓库管理员/库管,仓库管理员,4.5-6千/月,5.25,天津市北辰区瑞景国际鞋城,北辰区,39.20938956,117.1315465
天地华宇集团,天地华宇招调度员,调度员,,,双街镇德利得物流园内,北辰区,39.27642922,117.1172614
上海赫持货运代理有限公司,天津德邦：夜班分拣员/月薪6千以上,仓库管理员,,,面试乘车路线：天津站做570路公交，在宁河现代产业园公交站下车，联系电话：18016372590 孙先生 微信同号,宁河县,0,0
上海赫持货运代理有限公司,天津德邦夜班搬运工/月薪7千以上,搬运工,,,面试乘车路线：天津站做570路公交，在宁河现代产业园公交站下车，联系电话：18016372590 孙先生 微信同号,宁河县,0,0
上海赫持货运代理有限公司,天津德邦夜班搬运工/月薪7千以上,搬运工,,,面试乘车路线：天津站做570路公交，在宁河现代产业园公交站下车，联系电话：18016372590 孙先生 微信同号,宁河县,0,0
上海赫持货运代理有限公司,天津德邦夜班搬运工/月薪7千以上,搬运工,,,面试乘车路线：天津站做570路公交，在宁河现代产业园公交站下车，联系电话：18016372590 孙先生 微信同号,宁河县,0,0
上海赫持货运代理有限公司,天津德邦：夜班分拣员/月薪6千以上,仓库管理员,,,面试乘车路线：天津站做570路公交，在宁河现代产业园公交站下车，联系电话：18016372590 孙先生 微信同号,宁河县,0,0
上海赫持货运代理有限公司,天津德邦夜班搬运工/月薪7千以上,搬运工,,,面试乘车路线：天津站做570路公交，在宁河现代产业园公交站下车，联系电话：18016372590 孙先生 微信同号,宁河县,0,0
唯捷城配,仓库经理,仓储经理,1-1.5万/月,12.5,天津,河北区,39.1439299,117.2108131
天津格瑞特康生物科技有限公司,仓库管理员（绩效奖金+双休）,仓库管理员,4.5-6千/月,5.25,天津-西青区,西青区,39.03506461,117.1262013
天津格瑞特康生物科技有限公司,仓库管理员（绩效奖金+双休）,仓库管理员,,,天津-和平区,和平区,39.12480884,117.2028137
天津市金煊塑料制品有限公司,仓库管理员（双休+五险一金+带薪年假）,仓库管理员,4.5-6千/月,5.25,武清区,武清区,39.45704258,117.0345779
天津市北辰区威速货运代理中心,诚聘仓库管理员,仓库管理员,4.5-6千/月,5.25,天津市北辰区景海物流园,北辰区,39.20166442,117.1078234
天津市北辰区威速货运代理中心,发货员,仓库管理员,4.5-6千/月,5.25,天津市北辰区景海物流园,北辰区,39.20166442,117.1078234
天津市北辰区威速货运代理中心,仓库管理员,仓库管理员,4.5-6千/月,5.25,天津市北辰区景海物流园,北辰区,39.20166442,117.1078234
天津市北辰区威速货运代理中心,诚聘仓库管理员,仓库管理员,4.5-6千/月,5.25,天津市北辰区景海物流园,北辰区,39.20166442,117.1078234
天津市北辰区威速货运代理中心,诚聘发货员,仓库管理员,4.5-6千/月,5.25,天津市北辰区景海物流园,北辰区,39.20166442,117.1078234
天津市北辰区威速货运代理中心,装卸工,仓库管理员,200元/天,4.4,天津市北辰区青光镇韩家墅村景海物流园B区2楼69号,北辰区,39.20166442,117.1078234
唯捷城配,仓库主管,仓库主管,6-8千/月,7,天津,河北区,39.1439299,117.2108131
天津市亚泰鸿亿电镀设备有限公司,仓库主管,仓库主管,0.6-1万/月,8,天津市静海县良王庄乡十里堡村,静海县,38.98786757,116.9359139
天津市北辰区威速货运代理中心,诚聘调度员,调度员,4.5-6千/月,5.25,天津市北辰区景海物流园,北辰区,39.20166442,117.1078234
天津市北辰区威速货运代理中心,诚聘配送员,仓库管理员,4.5-6千/月,5.25,天津市北辰区景海物流园,北辰区,39.20166442,117.1078234
天津市北辰区威速货运代理中心,物流发货员,仓库管理员,4.5-6千/月,5.25,天津市北辰区景海物流园,北辰区,39.20166442,117.1078234
上海赫持货运代理有限公司,天津德邦：招聘夜班分拣员/搬运工/提供住宿,搬运工,,,面试乘车路线：天津站做570路公交，在宁河现代产业园公交站下车，联系电话：18016372590 孙先生 微信同号,宁河县,0,0
上海赫持货运代理有限公司,天津德邦：招聘夜班分拣员/搬运工/提供住宿,搬运工,,,面试乘车路线：天津站做570路公交，在宁河现代产业园公交站下车，联系电话：18016372590 孙先生 微信同号,宁河县,0,0
上海赫持货运代理有限公司,天津德邦：招聘夜班分拣员/搬运工/提供住宿,搬运工,,,面试乘车路线：天津站做570路公交，在宁河现代产业园公交站下车，联系电话：18016372590 孙先生 微信同号,宁河县,0,0
上海赫持货运代理有限公司,天津德邦：招聘夜班分拣员/搬运工/提供住宿,搬运工,,,面试乘车路线：天津站做570路公交，在宁河现代产业园公交站下车，联系电话：18016372590 孙先生 微信同号,宁河县,0,0
上海赫持货运代理有限公司,天津德邦：招聘夜班分拣员/搬运工/提供住宿,搬运工,,,面试乘车路线：天津站做570路公交，在宁河现代产业园公交站下车，联系电话：18016372590 孙先生 微信同号,宁河县,0,0
天津市北辰区威速货运代理中心,诚聘物流发货员,仓库管理员,4.5-6千/月,5.25,天津市北辰区景海物流园,北辰区,39.20166442,117.1078234
天津市北辰区威速货运代理中心,诚聘发货员,仓库管理员,4.5-6千/月,5.25,天津市北辰区景海物流园,北辰区,39.20166442,117.1078234
天津市北辰区威速货运代理中心,诚聘发货员,仓库管理员,4.5-6千/月,5.25,天津市北辰区景海物流园,北辰区,39.20166442,117.1078234
天津市北辰区威速货运代理中心,诚聘发货员,仓库管理员,4.5-6千/月,5.25,天津市北辰区景海物流园,北辰区,39.20166442,117.1078234
天津市北辰区威速货运代理中心,诚聘送货员,仓库管理员,4.5-6千/月,5.25,天津市北辰区景海物流园,北辰区,39.20166442,117.1078234
天津市北辰区威速货运代理中心,诚聘送货员,仓库管理员,4.5-6千/月,5.25,天津市北辰区景海物流园,北辰区,39.20166442,117.1078234
天津杰斯通物流有限公司,仓库管理员(职位编号：1424877),仓库管理员,4.5-6千/月,5.25,天津武清开发区,武清区,39.40592582,117.0807038
天津圣世特物流有限公司,仓库主管,仓库主管,4.5-6千/月,5.25,军粮城附近,东丽区,39.06306352,117.5299694
天津市金盛威建设工程集团有限公司,仓库管理员（工作地点：静海）,仓库管理员,3-4.5千/月,3.75,杨成庄乡乡政府对过,静海县,38.95112814,117.068548
天津圣世特物流有限公司,现场专员,仓库管理员,3-4.5千/月,3.75,和平区南京路189号津汇广场1座1303室,和平区,39.12389499,117.2042504
中信天津金融科技服务有限公司,仓储物流经理,仓储经理,,,天津经济技术开发区黄海路249号中信物流科技园（第十二大街与黄海路交口）,滨海新区,39.08402622,117.7139814
天津艾丰齐科技有限公司,物流仓储/物流专员/快递/仓库管理员,仓库管理员,6-8千/月,7,天津-和平区,和平区,39.12480884,117.2028137
无锡市中卡物流有限公司,仓库质管员（天津2）,仓库管理员,4.5-6千/月,5.25,天津市宁河现代产业园区安捷西路2号安博天津宁河物流中心,宁河县,39.25754713,117.441857
无锡市中卡物流有限公司,仓库质管员（天津1）,仓库管理员,4.5-6千/月,5.25,天津市武清区京滨工业园京滨大道88号阿里巴巴物流中心,武清区,39.55754245,116.8170347
苏州和阳智能制造股份有限公司,仓库管理员,仓库管理员,,,经济技术开发区西区中南五街98号,滨海新区,39.06883437,117.7266953
天津国御互联科技有限公司,仓库管理员（提供食宿）做五休二 弹性工作,仓库管理员,,,中山路,河北区,39.1628183,117.2059004
东方海外物流（中国）有限公司,鞋服仓库经理/天津,仓储经理,6-8千/月,7,天津西青区杨柳青维龙仓库,西青区,39.16075396,116.9881923
天津百浩鑫生物科技有限公司,仓库管理员（年终奖+可应届）,仓库管理员,,,国际会展中心,河北区,39.1439299,117.2108131
天津百浩鑫生物科技有限公司,仓库管理员（年终奖+可应届）,仓库管理员,,,国际会展中心,河北区,39.1439299,117.2108131
天津百浩鑫生物科技有限公司,仓库管理员（年终奖+可应届）,仓库管理员,,,中北镇新城市中心,西青区,39.14907377,117.0947694
天津市立和工贸有限公司,物流专员-派往常熟分公司,仓库管理员,,,天津市塘沽区港城大道东路中港城建材市场,滨海新区,39.1151492,117.6128789
天津国御互联科技有限公司,仓库管理员（提供食宿）做五休二 弹性工作,仓库管理员,,,西青区,西青区,39.03506461,117.1262013
天津百浩鑫生物科技有限公司,仓库管理员 （五险一金+带薪年假）,仓库管理员,,,日报大厦,河北区,39.1439299,117.2108131
天津国御互联科技有限公司,仓库管理员（提供食宿）做五休二 弹性工作,仓库管理员,,,和平区,和平区,39.12480884,117.2028137
天津食健科技发展有限公司,仓库管理员,仓库管理员,4.5-6千/月,5.25,孟庄镇大王庄村,武清区,39.56582351,116.9860166
天津食健科技发展有限公司,库管员,仓库管理员,3-4.5千/月,3.75,孟庄镇大王庄村,武清区,39.56582351,116.9860166
天津食健科技发展有限公司,物流调度主管,调度员,0.6-1.2万/月,9,河西区洞庭路美年广场4号楼,河西区,39.07994078,117.256064
上海方通车运物流有限公司北京运输分公司,调度员,调度员,3-5千/月,4,天津市滨海新区天保永利物流（渤海10路）院内方通物流停车场,滨海新区,38.94685832,117.7208475
天津百浩鑫生物科技有限公司,仓库管理员（双休+五险一金+带薪年假）,仓库管理员,,,日报大厦,河北区,39.1439299,117.2108131
天津国御互联科技有限公司,仓库管理员（提供食宿）做五休二 弹性工作,仓库管理员,,,天津-南开区,南开区,39.11698729,117.1627279
天津艾丰齐科技有限公司,库房管理文员/轻松4K+带薪年假,仓储管理文员,6-8千/月,7,天津-和平区,和平区,39.12480884,117.2028137
武汉亿钜鑫网络科技有限公司,仓库管理文员 绩效奖金/双休,仓库管理员,4.5-6千/月,5.25,河东区远洋国际,河东区,39.12662568,117.2616932
武汉亿钜鑫网络科技有限公司,仓库管理员/五险一金,仓库管理员,4.5-6千/月,5.25,河东区远洋国际,河东区,39.12662568,117.2616932
武汉亿钜鑫网络科技有限公司,仓库管理员（奖金 双休 5险1金 文职）,仓库管理员,4.5-6千/月,5.25,河东区远洋国际,河东区,39.12662568,117.2616932
天津众成精彩信息科技有限公司,采购文员仓储助理 五险一金 朝九晚六 双休4000+,仓储管理文员,4.5-6千/月,5.25,中新生态城,滨海新区,39.13369239,117.7570075
天津生物制品有限公司,仓库管理员,仓库管理员,2-3千/月,2.5,天津市西青区小南河,西青区,39.04039439,117.1446778
武汉亿钜鑫网络科技有限公司,仓库管理员（奖金 双休 5险1金 文职）,仓库管理员,4.5-6千/月,5.25,河东区远洋国际,河东区,39.12662568,117.2616932
康龙化成（北京）新药技术股份有限公司,仓库管理员,仓库管理员,4-6千/月,5,天津市经济技术开发区西区新业七街,滨海新区,39.06883437,117.7266953
康龙化成（北京）新药技术股份有限公司,仓库管理员,仓库管理员,4-6千/月,5,天津市经济技术开发区西区新业七街,滨海新区,39.06883437,117.7266953
康龙化成（北京）新药技术股份有限公司,库管员（天津）,仓库管理员,3-4.5千/月,3.75,天津市经济技术开发区西区新业七街,滨海新区,39.06883437,117.7266953
弗玛仓储（太仓）有限公司,库管员,仓库管理员,4-5千/月,4.5,杨柳青,西青区,39.14445688,117.0139432
弗玛仓储（太仓）有限公司,现在调度协调员,调度员,3-4.5千/月,3.75,杨柳青,西青区,39.14445688,117.0139432
武汉亿钜鑫网络科技有限公司,仓库管理员/五险一金+年底双薪+生活补贴,仓库管理员,4.5-6千/月,5.25,河东区远洋国际,河东区,39.12662568,117.2616932
武汉亿钜鑫网络科技有限公司,仓库管理员月薪5K 五险一金+包住宿,仓库管理员,4.5-6千/月,5.25,河东区远洋国际,河东区,39.12662568,117.2616932
武汉亿钜鑫网络科技有限公司,仓库管理员/五险一金+双休,仓库管理员,4.5-6千/月,5.25,河东区远洋国际,河东区,39.12662568,117.2616932
海纳（天津）弹簧有限公司,库工,仓库管理员,,,西青区杨柳青农场海纳道2号,西青区,39.17852331,117.104927
跨越速运集团有限公司,武清大碱厂招聘装卸工,叉车工,4-8千/月,6,天津市武清区大碱厂镇洪家庄村大碱厂村邮局,武清区,39.47622339,117.1477445
硕方电子（天津）有限公司,仓库配货员,仓库管理员,3-4.5千/月,3.75,天津河东区新开路万春美钻大厦3楼301室,河东区,39.15045845,117.2202273
上海虹迪物流科技股份有限公司,调度专员（天津武清区）,调度员,,,天津新技术产业园区武清开发区泉秀路3号,西青区,39.10349258,117.131966
江苏飞力达国际物流股份有限公司,仓库管理员,仓库管理员,3-4.5千/月,3.75,临海工业区,河北区,39.1439299,117.2108131
江苏飞力达国际物流股份有限公司,仓管员,仓库管理员,3-4.5千/月,3.75,海通街46号,滨海新区,39.08346826,117.7195496
天津市盛茁生物科技有限公司,跟车送货工,仓库管理员,2-3千/月,2.5,西青区赛达一大道桐海仓库6号,西青区,38.97855712,117.2400104
打零工（上海）互联网科技有限公司天津分公司,仓库管理员,仓库管理员,4-6千/月,5,天津市东丽区北方五金城旁高科技物流园内,东丽区,39.20702707,117.2813893
打零工（上海）互联网科技有限公司天津分公司,搬运工,搬运工,3.2-5千/月,4.1,天津市东丽区北方五金城旁高科技物流园内,东丽区,39.20702707,117.2813893
益嘉物流（天津）有限公司,仓库管理员,仓库管理员,4.5-6千/月,5.25,天津港保税区津滨大道95号,滨海新区,39.01515668,117.7721039
菲尔普斯文化传播,仓库管理员（食宿补贴+双休）,仓库管理员,4.5-6千/月,5.25,天津市和平区津湾广场,和平区,39.13806814,117.2175464
利拉伐（天津）有限公司,GMU warehouse handler 仓库管理员 (叉车工),仓库管理员,2-3千/月,2.5,天津市空港经济区纬十道101号,东丽区,39.16042451,117.420079
菲尔普斯文化传播,仓库管理员（食宿补贴+双休）,仓库管理员,4.5-6千/月,5.25,天津市和平区津湾广场,和平区,39.13806814,117.2175464
天津市景泰科技发展有限公司,仓库管理员,仓库管理员,3-4.5千/月,3.75,天津市武清区富民经济区B区,武清区,39.32246165,117.1013706
天津万象恒远科技有限公司,仓库管理员,仓库管理员,,,铁东北路天穆都市产业园西三门旁（原丽海饭店）,北辰区,39.22222336,117.1820926
百世物流科技（中国）有限公司,仓管员-8815,仓库管理员,3-4.5千/月,3.75,天津市北辰区辰远路双环村鹏安工业园百世快递,北辰区,39.21755861,117.137262
百世物流科技（中国）有限公司,供应链仓储主管,仓库管理员,6-8千/月,7,天津市南开区宜宾道集群产业园A座8号楼4楼,南开区,39.13460447,117.1344719
天津若水企业管理有限公司,养乐多库管六险一金,仓库管理员,4.5-6千/月,5.25,天津滨海新区周边,滨海新区,39.05917664,117.6462863
天津市海德瀚汽配有限公司,仓库管理员,仓库管理员,3-4.5千/月,3.75,天津市河东区万达广场尚东雅园,河东区,39.13070328,117.260147
弗玛仓储（太仓）有限公司,现场协调员/客服,仓库管理员,3-5千/月,4,杨柳青,西青区,39.14445688,117.0139432
弗玛仓储（太仓）有限公司,叉车驾驶员,叉车工,3-5.5千/月,4.25,杨柳青,西青区,39.14445688,117.0139432
天津爱康实业有限公司,仓库管理员,仓库管理员,,,天津宝坻区,宝坻区,39.615544,117.4114206
力司百灵弹簧（苏州）有限公司,仓库包装工,仓库管理员,2-3千/月,2.5,天津市东丽区华明高新区弘轩道7号3号厂房1楼,东丽区,39.17947211,117.359427
广州市广海物流有限公司,天津办操作客服,仓库管理员,3-4.5千/月,3.75,新港三号路紫云园23-2-306,滨海新区,39.01495876,117.7076097
上海嘉进物流有限公司,客服调度员,调度员,3-4.5千/月,3.75,赛达二支路13号A2-3库,西青区,38.99286544,117.2662082
天津认知汽车配件有限公司,设备维修,仓库管理员,4.5-6千/月,5.25,逸仙科技园亨运路6号,武清区,39.40883354,117.0287283
天津世尊进出口贸易有限公司,仓库管理员 包吃住 带薪年假 五险一金,仓库管理员,,,滨海新区,滨海新区,39.05917664,117.6462863
天津世尊进出口贸易有限公司,物料/仓库管理员,仓库管理员,,,滨海新区,滨海新区,39.05917664,117.6462863
天津世尊进出口贸易有限公司,仓库管理员,仓库管理员,,,滨海新区,滨海新区,39.05917664,117.6462863
天津世尊进出口贸易有限公司,仓库管理员 包吃住 带薪年假 五险一金,仓库管理员,,,滨海新区,滨海新区,39.05917664,117.6462863
天津世尊进出口贸易有限公司,物料/仓库管理员,仓库管理员,,,滨海新区,滨海新区,39.05917664,117.6462863
天津世尊进出口贸易有限公司,仓库管理员 包吃住 带薪年假 五险一金,仓库管理员,,,滨海新区,滨海新区,39.05917664,117.6462863
天津世尊进出口贸易有限公司,仓库管理员 包吃住 带薪年假 五险一金,仓库管理员,,,滨海新区,滨海新区,39.05917664,117.6462863
天津世尊进出口贸易有限公司,物料/仓库管理员,仓库管理员,,,滨海新区,滨海新区,39.05917664,117.6462863
天津世尊进出口贸易有限公司,诚聘物料/仓库管理员,仓库管理员,,,滨海新区,滨海新区,39.05917664,117.6462863
天津世尊进出口贸易有限公司,物料/仓库管理员 包吃住 高薪 季度晋升,仓库管理员,,,滨海新区,滨海新区,39.05917664,117.6462863
天津世尊进出口贸易有限公司,物料/仓库管理员 包三餐 包住 高薪 横向转岗,仓库管理员,,,滨海新区,滨海新区,39.05917664,117.6462863
天津世尊进出口贸易有限公司,物料/仓库管理员,仓库管理员,,,滨海新区,滨海新区,39.05917664,117.6462863
天津世尊进出口贸易有限公司,物料/仓库管理员,仓库管理员,,,滨海新区,滨海新区,39.05917664,117.6462863
天津世尊进出口贸易有限公司,物料/仓库管理员 餐补房补交补 多项福利,仓库管理员,,,滨海新区,滨海新区,39.05917664,117.6462863
天津世尊进出口贸易有限公司,物料/仓库管理员,仓库管理员,,,滨海新区,滨海新区,39.05917664,117.6462863
天津世尊进出口贸易有限公司,物料/仓库管理员 朝九晚六 双休 年终奖,仓库管理员,,,滨海新区,滨海新区,39.05917664,117.6462863
天津世尊进出口贸易有限公司,物料/仓库管理员,仓库管理员,,,滨海新区,滨海新区,39.05917664,117.6462863
天津铭源建筑工程有限公司,分餐员,仓库管理员,4-5千/月,4.5,开发区第九大街丰华工业园12号厂房南侧,滨海新区,39.05965374,117.7282599
韩谊（天津）新材料有限公司,库房主管,仓库管理员,4-6千/月,5,天津子牙循环经济产业园兴惠科技院内,和平区,39.13179092,117.1984434
爱回收,仓储专员,仓库管理员,3-5千/月,4,武清开发区,武清区,39.3956782,117.0593897
北京小易到家电子商务有限公司,仓储经理,仓储经理,1-1.5万/月,12.5,天津市和平区南京路131号富玛特大厦A座1101室,和平区,39.12335868,117.2074911
北京小易到家电子商务有限公司,仓库经理,仓储经理,0.8-1.5万/月,11.5,天津市和平区南京路131号富玛特大厦A座1101室,和平区,39.12335868,117.2074911
北京小易到家电子商务有限公司,仓储专员,仓库管理员,4-6千/月,5,天津,河北区,39.1439299,117.2108131
北京小易到家电子商务有限公司,仓库经理,仓储经理,6-8千/月,7,天津市和平区南京路131号富玛特大厦A座1101室,和平区,39.12335868,117.2074911
天津市艾福五金商贸有限公司,库管,仓库管理员,3-4.5千/月,3.75,西青道金盛工业园南园3号,西青区,39.15340497,117.0510796
天津市陶阳商贸有限公司,库工,仓库管理员,3-4.5千/月,3.75,卫国道与津汉桥交口建营物流园,东丽区,39.16383746,117.3242143
天津市现代天骄农业科技有限公司,仓库管理员,仓库管理员,,,天津市宝坻区大口屯镇汪台村南（现代天骄科技园）,宝坻区,39.592469,117.2774134
天津市现代天骄农业科技有限公司,仓库主管,仓库主管,,,天津市宝坻区大口屯镇汪台村南（现代天骄科技园）,宝坻区,39.592469,117.2774134
