company,job_title,joburl,lat,lng,salary,address
Hellobike,仓管&维修管理-邯郸,https://jobs.51job.com/handan/98066455.html?s=01&t=0,36.616164,114.452713,4.5-6千/月,
TCL速必达希杰物流有限公司,仓管员/仓务员,https://jobs.51job.com/baoding/103245855.html?s=01&t=0,,,4.5-6千/月,河北省保定市涿州市义和庄镇长安城村北河北森牛牧业有限公司
TCL速必达希杰物流有限公司,现场调度,https://jobs.51job.com/langfang/103931427.html?s=01&t=0,39.579478,116.798176,3.5-5千/月,
Volvo Car China 沃尔沃汽车中国,维修库房计划员,https://jobs.51job.com/zhangjiakou/96512977.html?s=01&t=0,40.783772,114.804959,3-4.5千/月,
爱迪特（秦皇岛）科技股份有限公司 ,仓库管理员,https://jobs.51job.com/qinhuangdao/96152411.html?s=01&t=0,39.932831,119.463239,2.9-4.2千/月,
爱迪特（秦皇岛）科技股份有限公司,仓库管理员,https://jobs.51job.com/qinhuangdao/96152411.html?s=01&t=0,39.932831,119.463239,2.9-4.2千/月,开发区都山路9号
安得智联科技股份有限公司,,https://jobs.51job.com/shijiazhuang/98926052.html?s=01&t=0,38.098245,114.432493,,
昂特（北京）科技有限公司,库房经理,https://jobs.51job.com/langfang/109453116.html?s=01&t=0,,,,河北省廊坊市固安县新兴示范园区东位村村东D区
奥星集团,,https://jobs.51job.com/shijiazhuang/89490912.html?s=01&t=0,37.985146,114.650285,,
霸州市昊成彩钢钢构制造有限公司,仓库管理员(职位编号：03),https://jobs.51job.com/langfang/106361722.html?s=01&t=0,39.116757,116.391369,3-4.5千/月,霸州市益津市场家装精品街
百川能源股份有限公司,库房管理主管,https://jobs.51job.com/langfang/99656334.html?s=01&t=0,39.31307,116.500439,4.5-6千/月,
百斯图工具制造有限公司,仓库管理员,https://jobs.51job.com/langfang/108246176.html?s=01&t=0,39.494787,116.667795,,廊坊市安次区工业园安中路3号
百斯图工具制造有限公司,库房主管,https://jobs.51job.com/langfang/106815205.html?s=01&t=0,39.494787,116.667795,0.6-1万/月,廊坊市安次区工业园安中路3号
宝福连接（永清）科技有限公司,仓库配货员,https://jobs.51job.com/langfang/109952032.html?s=01&t=0,39.354458,116.513623,,永清县智能控制产业园（永清县孔雀城附近
保定保汇汽车销售有限公司,零件计划员,https://jobs.51job.com/baoding/106101890.html?s=01&t=0,38.836833,115.544021,3-4.5千/月,河北省保定市莲池区东二环539号，广汽丰田4S店
保定创锐泵业有限公司,质检员,https://jobs.51job.com/baoding/81560821.html?s=01&t=0,38.918694,115.448869,,保定高新区中关村创新基地12号楼东单元2楼
保定多普康智能科技有限公司,仓库管理员,https://jobs.51job.com/baoding/109856617.html?s=01&t=0,38.911289,115.471204,,保定市高开区火炬产业园5号楼3单元3层
保定费奇赫顿服饰有限公司 ,仓库管理员,https://jobs.51job.com/baoding/93845624.html?s=01&t=0,38.905332,115.561215,2-3千/月,
保定费奇赫顿服饰有限公司,仓库管理员,https://jobs.51job.com/baoding/93845624.html?s=01&t=0,38.905332,115.561215,2-3千/月,莲池区西百楼工业园河东巷16号
保定瀚疆建筑安装工程有限公司,仓库主管,https://jobs.51job.com/hebeisheng/109719508.html?s=01&t=0,38.879989,115.47146,,保定
保定兰格恒流泵有限公司,,https://jobs.51job.com/baoding/102975686.html?s=01&t=0,38.8979,115.47141,,
保定欧普电子科技有限公司,仓库管理员,https://jobs.51job.com/baoding/103700536.html?s=01&t=0,38.905403,115.455604,2.5-4千/月,
保定市北市区金圣达美容美发用品商行,仓库管理员(职位编号：17),https://jobs.51job.com/baoding/97787916.html?s=01&t=0,38.865279,115.486672,3-4.5千/月,北市区建华大街744号 公安局南院3号商业楼
保定市北市区金圣达美容美发用品商行,仓库管理员(职位编号：18),https://jobs.51job.com/baoding/97787929.html?s=01&t=0,38.865279,115.486672,3-4.5千/月,北市区建华大街744号 公安局南院3号商业楼
保定市北市区金圣达美容美发用品商行,仓库管理员(职位编号：19),https://jobs.51job.com/baoding/97787946.html?s=01&t=0,38.865279,115.486672,3-4.5千/月,
保定市和翔商贸有限公司,内勤库管,https://jobs.51job.com/baoding/78435653.html?s=01&t=0,38.880055,115.471052,3-4.5千/月,
保定市华联化工有限责任公司,仓库管理员,https://jobs.51job.com/baoding/110206108.html?s=01&t=0,38.854358,115.470735,,河北省保定市莲池区建国路保石立交桥北
保定市汇沃汽车销售有限公司,仓库管理员,https://jobs.51job.com/baoding/103332619.html?s=01&t=0, , ,3-5千/月,七一东路和东二环交叉口西行300米路北（新东方凤凰城对面）
保定市景昌机电有限公司,库房管理员,https://jobs.51job.com/baoding/101511621.html?s=01&t=0,,,3-4千/月,保定市三丰路与利民路交叉口西南角景昌机电
保定市凯元利通商贸有限公司,仓库主管,https://jobs.51job.com/cangzhou/110414384.html?s=01&t=0,38.734679,116.023031,,任丘市青塔乡
保定市全勇商贸有限公司,仓库理货员,https://jobs.51job.com/baoding/104390675.html?s=01&t=0,,,3.5-4千/月,北2环索利建材
保定市裕升建筑安装股份有限公司,仓库管理员,https://jobs.51job.com/baoding/106242264.html?s=01&t=0,38.918152,115.556476,2-3千/月,北市区长城北大街与北三环交叉口西行200米
保定市元健医疗器械销售有限公司,送货员,https://jobs.51job.com/baoding/103918392.html?s=01&t=0,38.90332,115.480858,2-3千/月,
保定轩宇汽车集团有限公司,,https://jobs.51job.com/baoding/59560142.html?s=01&t=0,38.913773,115.476136,,
保定轩宇汽车集团有限公司,配件库管员,https://jobs.51job.com/baoding/59560142.html?s=01&t=0,38.913773,115.476136,3-6千/月,保定市高开区朝阳北大街1299号
保定阳光隆安工贸有限公司,仓库管理员,https://jobs.51job.com/baoding/97850944.html?s=01&t=0,38.878604,115.30727,2-3千/月,
保定伊和生物科技有限责任公司,保管,https://jobs.51job.com/baoding/85613914.html?s=01&t=0,38.842439,115.612219,3-6千/月,
保定伊和生物科技有限责任公司,配送员,https://jobs.51job.com/baoding/109302803.html?s=01&t=0,38.842439,115.612219,,清苑区保新路
保定英利水牛物流有限公司,物流调度,https://jobs.51job.com/baoding/108162657.html?s=01&t=0,38.934809,115.480441,,朝阳北大街3399号英利三期总部
保定英利水牛物流有限公司,运输调度,https://jobs.51job.com/baoding/108235711.html?s=01&t=0,38.934809,115.480441,,朝阳北大街3399号英利三期总部
保定振东商贸有限公司,仓库记账员,https://jobs.51job.com/baoding/106977928.html?s=01&t=0,,,3-5千/月,北市区秀兰尚城南门西侧底商国诚基金
北京奥普科星技术有限公司,仓库管理员,https://jobs.51job.com/xingtai/105943216.html?s=01&t=0,,,3-4.5千/月,河北省邢台市威县经济开发区嘉寓产业园5号
北京百灵威科技有限公司,库房理货员/打包员,https://jobs.51job.com/beijing-tzq/95985192.html?s=01&t=0,39.93201,116.788715,3-4.5千/月,
北京百维博锐贸易有限公司,仓库管理员（张家口百盛）,https://jobs.51job.com/zhangjiakou/110296946.html?s=01&t=0,40.822866,114.893307,,桥东区滨河中路2号张家口百盛1F
北京北通四海电子商务有限公司,仓库文员,https://jobs.51job.com/langfang/107910695.html?s=01&t=0,39.51751,116.652098,2-3千/月,廊坊广阳区光明西道268号
北京博润佳科技有限公司,,https://jobs.51job.com/cangzhou/103152952.html?s=01&t=0,38.418722,117.313031,,
北京德青源农业科技股份有限公司,仓库管理员,https://jobs.51job.com/langfang/105298348.html?s=01&t=0,,,3-4.5千/月,百合路与一纬道交口京永物流院内
北京顶通物流有限公司,,https://jobs.51job.com/shijiazhuang/103300696.html?s=01&t=0,38.091749,114.320598,,
北京顶通物流有限公司,仓管,https://jobs.51job.com/shijiazhuang/100336989.html?s=01&t=0,38.091749,114.320598,3-4.5千/月,鹿泉区
北京顶通物流有限公司,仓库管理员,https://jobs.51job.com/cangzhou/108478632.html?s=01&t=0,,,,新华区北外环石油北库西侧
北京顶通物流有限公司,仓库理货员,https://jobs.51job.com/shijiazhuang/103300696.html?s=01&t=0,38.091749,114.320598,3-4.5千/月,鹿泉区
北京东方蓝地服装股份有限公司,仓储主管,https://jobs.51job.com/beijing-cyq/107356065.html?s=01&t=0,39.897591,116.462571,0.8-1.5万/月,朝阳区垂杨柳中街4号院
北京东方雨虹防水技术股份有限公司,,https://jobs.51job.com/tangshan/92745182.html?s=01&t=0,39.284608,118.08823,,
北京东阳西友展览服务有限责任公司,库房管理员（唐山）,https://jobs.51job.com/tangshan/106164369.html?s=01&t=0,39.532404,118.10448,2.5-5千/月,唐山市丰南开发区
北京分公司7,仓储运营经理,https://jobs.51job.com/tianjin-bcq/108146867.html?s=01&t=0,,,,交通集团城市物流配送中心美菜网仓库
北京格雷泰科建筑技术有限公司,生产经理助理,https://jobs.51job.com/cangzhou/100928975.html?s=01&t=0,,,3-4.5千/月,沧州经济技术开发区九河东路43号
北京格瑞德曼仪器设备有限公司 ,库管（急）,https://jobs.51job.com/beijing-cpq/73737623.html?s=01&t=0,40.072319,116.355366,4-6千/月,
北京格瑞德曼仪器设备有限公司,库管（急）,https://jobs.51job.com/beijing-cpq/73737623.html?s=01&t=0,40.072319,116.355366,4-6千/月,北京市昌平区回龙观镇黄平路19号院（龙旗广场）
北京航星机器制造有限公司航星宏达分公司,搬运工,https://jobs.51job.com/yanjiao/107156345.html?s=01&t=0,39.977372,116.859692,6-8千/月,燕郊镇福成路413号
北京豪沃尔科技发展股份有限公司,仓库管理员,https://jobs.51job.com/yanjiao/106088273.html?s=01&t=0,39.926009,116.911795,3-4.5千/月,大厂潮白河工业园区工业四路东段检验认证产业园三号楼
北京好世好餐饮管理有限公司 ,仓库管理员,https://jobs.51job.com/langfang/102477700.html?s=01&t=0,39.585912,116.780665,3.5-6千/月,
北京好世好餐饮管理有限公司,仓库管理员,https://jobs.51job.com/langfang/102477700.html?s=01&t=0,39.585912,116.780665,3.5-6千/月,经济开发区鸿润道
北京和众奥顺达物流有限公司,物流驻场调度员,https://jobs.51job.com/langfang/104426445.html?s=01&t=0,39.469704,116.787057,4.5-6千/月,
北京恒业世纪科技股份有限公司,成品库主管,https://jobs.51job.com/qinhuangdao/104917668.html?s=01&t=0,39.930941,119.428312,6-8千/月,
北京虎彩文化传播有限公司,仓库管理员,https://jobs.51job.com/langfang/108009534.html?s=01&t=0,39.408946,116.347593,,河北省廊坊市固安南开发区
北京华翔电炉技术有限责任公司,仓库管理员,https://jobs.51job.com/langfang/102595420.html?s=01&t=0, , ,3-4.5千/月,固安县固安工业区南区迎宾路东50米
北京惠赢天下网络技术有限公司,仓储规划主管/专员,https://jobs.51job.com/hebeisheng/104983788.html?s=01&t=0,38.043202,114.536596,4-8千/月,
北京慧运维技术有限公司,资产管理员,https://jobs.51job.com/langfang/103512681.html?s=01&t=0,39.569207,116.762816,4-6千/月,
北京加汇通业机电技术有限公司,库房主管,https://jobs.51job.com/langfang/106643873.html?s=01&t=0,39.925716,116.912613,4.5-6千/月,大厂经济开发区工业二路
北京京华虎彩印刷有限公司,物流专员,https://jobs.51job.com/langfang/110033901.html?s=01&t=0,39.408946,116.347593,,河北省廊坊市固安南开发区
北京京威汽车设备有限公司,库管,https://jobs.51job.com/langfang/106282764.html?s=01&t=0,39.925716,116.912613,3-4.5千/月,大厂潮白河工业区工业二路
北京晶澳太阳能光伏科技有限公司,仓库统计员（邢台基地）(职位编号：002),https://jobs.51job.com/xingtai/108599027.html?s=01&t=0,37.064041,114.546364,,邢台经济开发区长安路1688号
北京美波宝贝商贸有限公司,仓库管理员,https://jobs.51job.com/langfang/105198185.html?s=01&t=0,39.573644,116.777111,3-4.5千/月,
北京美波宝贝商贸有限公司,电商仓库库管 理货 打包员,https://jobs.51job.com/langfang/106913788.html?s=01&t=0,39.573644,116.777111,3-4.5千/月,广阳开发区祥云道6号多元集团
北京美波宝贝商贸有限公司,电商库房包装配货,https://jobs.51job.com/langfang/107088932.html?s=01&t=0,39.573644,116.777111,2-3千/月,广阳开发区祥云道6号多元集团
北京美波宝贝商贸有限公司,电商库房人员,https://jobs.51job.com/langfang/107255851.html?s=01&t=0,39.573644,116.777111,80元/天,广阳开发区祥云道6号多元集团
北京美波宝贝商贸有限公司,库房包装员,https://jobs.51job.com/langfang/106773939.html?s=01&t=0,39.573644,116.777111,3-4.5千/月,广阳开发区祥云道6号多元集团
北京美波宝贝商贸有限公司,淘宝库房打包配货包装(职位编号：1),https://jobs.51job.com/langfang/104945481.html?s=01&t=0,39.573644,116.777111,3-4.5千/月,
北京美波宝贝商贸有限公司,淘宝库房理货员/打包员,https://jobs.51job.com/langfang/106774051.html?s=01&t=0,39.573644,116.777111,3-4.5千/月,广阳开发区祥云道6号多元集团
北京美力马消防设备有限公司 ,仓库管理员(固安上班）,https://jobs.51job.com/langfang/91293856.html?s=01&t=0,39.471298,116.265015,2.5-4.5千/月,
北京美力马消防设备有限公司,仓库管理员(固安上班）,https://jobs.51job.com/langfang/91293856.html?s=01&t=0,39.471298,116.265015,2.5-4.5千/月,河北省廊坊市固安县固安北开发区江山路临1号
北京美力马消防设备有限公司,库房包装员(固安上班）,https://jobs.51job.com/langfang/91292208.html?s=01&t=0,39.471298,116.265015,2.5-4.5千/月,河北省廊坊市固安县固安北开发区江山路临1号
北京耐尔得智能科技有限公司,,https://jobs.51job.com/langfang/102918187.html?s=01&t=0,39.736794,116.971073,,
北京耐尔得智能科技有限公司,材料库管,https://jobs.51job.com/langfang/102918187.html?s=01&t=0,39.736794,116.971073,3-4.5千/月,河北省廊坊市香河县机器人工业园区
北京普罗格科技股份有限公司,,https://jobs.51job.com/langfang/102243582.html?s=01&t=0,39.602527,116.686737,,
北京普罗格科技股份有限公司,库房主管,https://jobs.51job.com/langfang/102243582.html?s=01&t=0,39.602527,116.686737,5.5-6.5千/月,河北省廊坊市广阳区凤舞道10号宝湾国际物流园
北京普罗格科技股份有限公司,收货主管,https://jobs.51job.com/langfang/97818924.html?s=01&t=0,39.602527,116.686737,5-6.2千/月,河北省廊坊市广阳区凤舞道10号宝湾国际物流园
北京普罗格科技股份有限公司,物流仓储运营主管（代理仓经理）,https://jobs.51job.com/langfang/100282204.html?s=01&t=0,39.602527,116.686737,0.7-1万/月,河北省廊坊市广阳区凤舞道10号宝湾国际物流园
北京热刺激光技术有限责任公司,仓库管理员,https://jobs.51job.com/yanjiao/108188757.html?s=01&t=0,,,,燕郊留山大街10号全景工业园3期51号楼（公交308路亿丰伟业站下车）
北京沙睿金科技有限公司,库管,https://jobs.51job.com/baoding/110359445.html?s=01&t=0,39.347116,115.874443,,高碑店市亚威街2号
北京首钢朗泽新能源科技有限公司,成品库区管理员,https://jobs.51job.com/tangshan/101358944.html?s=01&t=0,39.008587,118.514699,,河北省唐山市曹妃甸工业园区首钢京唐公司院内
北京斯利安药业有限公司,仓库主管,https://jobs.51job.com/cangzhou/102037159.html?s=01&t=0, , ,4.5-7千/月,黄骅市临港开发区经四路东侧（经二路）
北京天健君安经贸有限公司,仓库管理员,https://jobs.51job.com/shijiazhuang/90135562.html?s=01&t=0,38.013108,114.477134,4-6千/月,
北京通嘉宏盛科技有限公司,仓库管理员,https://jobs.51job.com/langfang/109239707.html?s=01&t=0,,,,固安县南开发区环保产业园9号楼
北京通尼科技有限公司 ,技术文员,https://jobs.51job.com/qinhuangdao/105650397.html?s=01&t=0,39.936051,119.635052,3-4.5千/月,
北京通尼科技有限公司,技术文员,https://jobs.51job.com/qinhuangdao/105650397.html?s=01&t=0,39.936051,119.635052,3-4.5千/月,河北省秦皇岛市海港区河北大街东段28
北京童趣控股有限公司,库房理货员,https://jobs.51job.com/langfang/103670763.html?s=01&t=0,39.372943,116.56224,3-5千/月,
北京万古恒信科技有限公司,河北廊坊市中粮仓库招装卸工,https://jobs.51job.com/langfang/107110936.html?s=01&t=0,39.43086,116.472957,3.5-4千/月,永清县永清国际冷链物流园
北京万集科技股份有限公司,,https://jobs.51job.com/cangzhou/101293111.html?s=01&t=0,38.598388,116.900292,,
北京万集科技股份有限公司,库管（工作地点：沧州青县）,https://jobs.51job.com/cangzhou/101293111.html?s=01&t=0,38.598388,116.900292,2.5-4千/月,河北省沧州市青县清州镇罗店开发区
北京万里伟业物流有限公司,装卸工,https://jobs.51job.com/baoding/107080150.html?s=01&t=0,,,5-8千/月,河北定州市城北伊利工业园
北京万普隆能源技术有限公司 ,仓库管理员,https://jobs.51job.com/baoding/103674600.html?s=01&t=0,39.555538,115.914181,3-4.5千/月,
北京万普隆能源技术有限公司,仓库管理员,https://jobs.51job.com/baoding/103674600.html?s=01&t=0,39.555538,115.914181,3-4.5千/月,涿州百尺杆
北京沃尔玛百货有限公司,运营经理/驻仓经理,https://jobs.51job.com/beijing-tzq/107398293.html?s=01&t=0,39.710984,116.811983,7-9千/月,北京市通州区永乐店镇永乐大街7号宇培北京通州物流园
北京沃尔玛百货有限公司,运营主管/物流主管,https://jobs.51job.com/beijing-tzq/107398547.html?s=01&t=0,39.710984,116.811983,4.5-6千/月,北京市通州区永乐店镇永乐大街7号宇培北京通州物流园
北京沃森格美展览展示有限公司 ,库管员/仓库管理员/配件库管/理货员(包吃住),https://jobs.51job.com/langfang/98261776.html?s=01&t=0,39.581784,116.766193,3.5-4.5千/月,
北京沃森格美展览展示有限公司,库管员/仓库管理员/配件库管/理货员(包吃住),https://jobs.51job.com/langfang/98261776.html?s=01&t=0,39.581784,116.766193,3.5-4.5千/月,中纺城
北京西西弗文化传播有限公司,物流验货员（涿州）,https://jobs.51job.com/baoding/106168163.html?s=01&t=0,,,3.2-4千/月,涿州市东城坊镇宋家营村北京宏贤达集团涿州图书文化产业园宋家营园区
北京新联铁集团股份有限公司,库管员,https://jobs.51job.com/langfang/99056884.html?s=01&t=0,39.573287,116.772065,3.5-5千/月,廊坊开发区友谊路510号
北京怡孚和融科技有限公司 ,仓库管理员,https://jobs.51job.com/shijiazhuang/104809725.html?s=01&t=0,37.983388,114.415416,3-5千/月,
北京怡孚和融科技有限公司,仓库管理员,https://jobs.51job.com/shijiazhuang/104809725.html?s=01&t=0,37.983388,114.415416,3-5千/月,河北省石家庄市鹿泉区恒信汽配城
北京易达新电气成套设备有限公司,库房管理员,https://jobs.51job.com/shijiazhuang/107159032.html?s=01&t=0,38.065562,114.357556,3-4.5千/月,石家庄鹿泉区鹿岛V谷科技工业园
北京逸帆伟业文化发展有限公司,库工,https://jobs.51job.com/baoding/97441981.html?s=01&t=0,,,3-4.5千/月,河北省涿州市开发区朝阳路东段河北勘森6号
北京英博电气股份有限公司,库房管理员,https://jobs.51job.com/langfang/92623840.html?s=01&t=0,39.518611,116.703602,3-6千/月,
北京英杰森国际贸易有限公司,仓库管理员,https://jobs.51job.com/langfang/110273092.html?s=01&t=0,,,,管家务廊坊红日胜包装有限公司院内（永清杨安迪公司）
北京元气森林饮料有限公司,仓库物流主管,https://jobs.51job.com/hangzhou-xsq/109376748.html?s=01&t=0,,,,杭州萧山和河北邯郸两地跑
北京众驰伟业科技发展有限公司,仓库管理员,https://jobs.51job.com/yanjiao/95356978.html?s=01&t=0,39.990999,116.783222,3-4.5千/月,
北京资源亿家控股集团有限公司,仓库管理员,https://jobs.51job.com/langfang/103249498.html?s=01&t=0,39.520968,116.152518,3-4.5千/月,
必康润祥医药河北有限公司,物流中心-仓库管理员,https://jobs.51job.com/shijiazhuang/106173453.html?s=01&t=0,,,4-6千/月,栾城区环城西路中段（城区公安分局斜对面）
碧桂园控股,,https://jobs.51job.com/qinhuangdao/94519790.html?s=01&t=0,39.941748,119.608531,,
碧桂园控股,仓库管理员,https://jobs.51job.com/tangshan/94519791.html?s=01&t=0,39.636584,118.186459,4.5-6千/月,
缤果盒子 ,仓储物流经理,https://jobs.51job.com/tangshan/104739339.html?s=01&t=0,39.738412,118.453214,0.8-1万/月,
博世汽车多媒体（芜湖）有限公司,仓管员（保定）/Warehouse Keeper (CM/BdgP),https://jobs.51job.com/baoding/88956824.html?s=01&t=0, , ,,河北省保定市徐水区朝阳北大街（徐）199号
沧州鹤来科技有限公司,保管员,https://jobs.51job.com/cangzhou/99735584.html?s=01&t=0,,,,沧县旧州镇强庄子工业区
沧州临港三菱金属制品有限公司,仓库管理员,https://jobs.51job.com/cangzhou/92761190.html?s=01&t=0,38.391297,117.472639,2-3千/月,
沧州市精益医疗器械有限公司,送货员,https://jobs.51job.com/cangzhou/106196085.html?s=01&t=0,38.314737,116.903484,,长芦大道5号
沧州双蝶体育器材有限公司,,https://jobs.51job.com/cangzhou/91560517.html?s=01&t=0,38.046407,117.480681,,
沧州天华移动通信科技有限公司 ,仓库管理员,https://jobs.51job.com/cangzhou/99924751.html?s=01&t=0,38.294513,116.958578,3-4.5千/月,
沧州天华移动通信科技有限公司,仓库管理员,https://jobs.51job.com/cangzhou/99924751.html?s=01&t=0,38.294513,116.958578,,开发区
昌黎惠冀再生能源利用有限公司 ,仓库管理员,https://jobs.51job.com/qinhuangdao/105674262.html?s=01&t=0,39.71923,119.062255,3-4.5千/月,
昌宜（天津）模板租赁有限公司 ,仓库管理员,https://jobs.51job.com/shijiazhuang/103884407.html?s=01&t=0,38.148198,114.420843,3-4.5千/月,
昌宜（天津）模板租赁有限公司,（邯郸）基地仓储班组长,https://jobs.51job.com/handan/107731107.html?s=01&t=0, , ,,曙光路南和盛新型建材
昌宜（天津）模板租赁有限公司,仓库管理员,https://jobs.51job.com/shijiazhuang/103884407.html?s=01&t=0,38.148198,114.420843,,河北省石家庄市鹿泉区大河镇纸房头中友机电院内
昌宜（天津）模板租赁有限公司,诚聘（邯郸）仓库主管,https://jobs.51job.com/handan/107730992.html?s=01&t=0,,,,曙光路南和盛新型建材
昌宜（天津）模板租赁有限公司,诚聘仓库主管,https://jobs.51job.com/hengshui/106466158.html?s=01&t=0,37.887876,116.166176,,河北省衡水市阜城县杜场村
昌宜（天津）模板租赁有限公司,衡水基地物资仓储班组长,https://jobs.51job.com/hengshui/106466964.html?s=01&t=0,37.887876,116.166176,,河北省衡水市阜城县杜场村
昌宜（天津）模板租赁有限公司,基地仓库主管,https://jobs.51job.com/xingtai/107367511.html?s=01&t=0,37.076685,114.511459,,邢台市持菡蛐磷村嘉寓威县节能产业园
昌宜（天津）模板租赁有限公司,物资基地仓储班组长,https://jobs.51job.com/xingtai/107367548.html?s=01&t=0,37.076685,114.511459,,邢台市持菡蛐磷村嘉寓威县节能产业园
常山众卡运力供应链管理有限公司,,https://jobs.51job.com/langfang/102104034.html?s=01&t=0,39.602527,116.686737,,
常山众卡运力供应链管理有限公司,调度员,https://jobs.51job.com/langfang/102104034.html?s=01&t=0,39.602527,116.686737,,河北省廊坊市开发区凤舞道十号（宝湾国际物流园）
晨光生物科技集团股份有限公司,仓库管理员,https://jobs.51job.com/handan/105481066.html?s=01&t=0,,,,晨光集团国外子公司
晨光文具---石家庄晨华文具有限公司 ,仓库理货员,https://jobs.51job.com/shijiazhuang/102441106.html?s=01&t=0,38.052534,114.505539,2.8-3.3千/月,
晨光文具---石家庄晨华文具有限公司,仓库理货员,https://jobs.51job.com/shijiazhuang/102441106.html?s=01&t=0,38.052534,114.505539,,南三条东方文化体育市场
成都爱司机科技有限公司,运力拓展专员,https://jobs.51job.com/shijiazhuang/102625016.html?s=01&t=0, , ,,长安区百川大厦西塔1801
德邦快递,德邦诚聘分拣员,https://jobs.51job.com/shijiazhuang/102722104.html?s=01&t=0,38.018669,114.698304,3-4.5千/月,
德本（北京）广告有限公司,库房管理员（香河）,https://jobs.51job.com/langfang/109343604.html?s=01&t=0,39.730514,116.965788,,廊坊香河县运河大道机器人产业园安康街22号
德高（广州）建材有限公司,物流专员（石家庄市行唐县）,https://jobs.51job.com/shijiazhuang/108442887.html?s=01&t=0,38.388697,114.514151,,行唐县经济开发区
迪卡侬仓储配送,仓库管理员--北京燕郊,https://jobs.51job.com/langfang/61828474.html?s=01&t=0,,,,燕郊开发区潮白大街89号
迪卡侬仓储配送,配送中心部门经理--北京燕郊,https://jobs.51job.com/langfang/62341910.html?s=01&t=0,39.54352,116.69034,,廊坊
定州市松本汽车座椅制造有限公司,,https://jobs.51job.com/baoding/91383277.html?s=01&t=0,38.548684,114.930225,,
东方希望集团有限公司,,https://jobs.51job.com/tangshan/102962479.html?s=01&t=0,39.872878,118.579757,,
多格漫商贸（上海）有限公司,仓库管理员,https://jobs.51job.com/langfang/107990941.html?s=01&t=0,,,,燕郊经济技术开发区迎宾北路百世金谷国际产业基地50-E
分众传媒,库管文员,https://jobs.51job.com/shijiazhuang/109575143.html?s=01&t=0,38.051376,114.512375,,长安区勒泰中心写字楼B座11层1102-1104
风神物流有限公司,配送库管理员（廊坊）,https://jobs.51job.com/langfang/85979644.html?s=01&t=0,39.444442,116.304938,,固安县
佛山市顺德区巴德富实业有限公司,仓库管理员,https://jobs.51job.com/cangzhou/108551452.html?s=01&t=0,38.341837,117.541379,,黄骅市临港化工园区沧州巴德富化工科技有限公司
福克 . 埃尔莫（廊坊）电气有限公司 ,材料和发货管理员（一年岗）,https://jobs.51job.com/langfang/105641310.html?s=01&t=0,39.594333,116.770003,2-2.5千/月,
呷哺呷哺餐饮管理有限公司总部 ,石家庄配送中心主管,https://jobs.51job.com/shijiazhuang/103373510.html?s=01&t=0,38.059371,114.37519,6-8千/月,
呷哺呷哺餐饮管理有限公司总部,石家庄配送中心主管,https://jobs.51job.com/shijiazhuang/103373510.html?s=01&t=0,38.059371,114.37519,,鹿泉区昌盛大街17号厚朴冷链园
高碑店市信德百利革业有限公司,仓库管理员,https://jobs.51job.com/baoding/107146922.html?s=01&t=0,39.140063,116.050948,,白沟工业园区三期
高碑店市云岭医药有限公司,送货员,https://jobs.51job.com/baoding/109021043.html?s=01&t=0,39.334021,115.869058,,高碑店市北大街10号
高斯宝河北电力科技有限公司,仓库管理员,https://jobs.51job.com/tangshan/108232236.html?s=01&t=0,39.059983,118.475892,,曹妃甸工业区平台中日生态园高新厂房B2-1.2栋内
钴得暖业（唐山曹妃甸）科技有限公司,库房主管,https://jobs.51job.com/tangshan/103277111.html?s=01&t=0,39.112329,118.487875,3-4.5千/月,
瓜子二手车 ,店面运营经理,https://jobs.51job.com/shijiazhuang/105744107.html?s=01&t=0,38.063328,114.477697,1-1.5万/月,
瓜子二手车,车场管理员,https://jobs.51job.com/baoding/106532262.html?s=01&t=0,38.848092,115.544772,,东二环客运中心焦庄红绿灯西侧
瓜子二手车,车场运营管理,https://jobs.51job.com/shijiazhuang/106452945.html?s=01&t=0,38.063328,114.477697,,新华区和平西路南100米
瓜子二手车,车辆运营主管,https://jobs.51job.com/baoding/107193541.html?s=01&t=0,38.848092,115.544772,,东二环客运中心焦庄红绿灯西侧
瓜子二手车,店面运营经理,https://jobs.51job.com/shijiazhuang/105744107.html?s=01&t=0,38.063328,114.477697,,新华区和平西路南100米
广东都市物流科技有限公司 ,分拣理货仓库工作包吃住直接面试,https://jobs.51job.com/tianjin-wqq/105670327.html?s=01&t=0,39.560609,116.834369,3.5-6千/月,
广东都市物流科技有限公司,分拣理货仓库工作包吃住直接面试,https://jobs.51job.com/tianjin-wqq/105670327.html?s=01&t=0,39.560609,116.834369,,天津市武清区京滨工业园古旺路26号
广东海大集团股份有限公司,仓管员,https://jobs.51job.com/shijiazhuang/109203867.html?s=01&t=0,37.967044,115.029958,,河北省石家庄市晋州市桃园镇政府南行200米路西
广东海大集团股份有限公司,仓库管理员,https://jobs.51job.com/shijiazhuang/107976763.html?s=01&t=0,37.967044,115.029958,,河北省石家庄市晋州市桃园镇政府南行200米路西
广东华兴玻璃股份有限公司,仓库管理员,https://jobs.51job.com/langfang/101074820.html?s=01&t=0,39.378248,116.536278,,永清县燃气工业园区百合路25号
广东喜之郎集团有限公司,仓库管理员,https://jobs.51job.com/baoding/106120294.html?s=01&t=0,39.269474,115.81431,,定兴县
广州倍耐踏地板有限公司,仓库工人,https://jobs.51job.com/shijiazhuang/108144812.html?s=01&t=0,37.972756,114.573691,,栾城县楼底镇西许营村
广州孚达保温隔热材料有限公司,仓库管理员,https://jobs.51job.com/tangshan/103620398.html?s=01&t=0,39.284368,118.083977,4-6千/月,
广州交通集团物流有限公司,营运专员,https://jobs.51job.com/hebeisheng/107061444.html?s=01&t=0,,,,石家庄裕华区恒山街196号 医药仓库
广宗牧原农牧有限公司 ,分场仓管（上市公司+五险一金）,https://jobs.51job.com/xingtai/101176549.html?s=01&t=0,37.534591,115.248547,3.5-8千/月,
广宗牧原农牧有限公司,分场仓管（上市公司+五险一金）,https://jobs.51job.com/xingtai/101176549.html?s=01&t=0,37.534591,115.248547,,新河县
贵州百灵企业集团制药股份有限公司石家庄办事处,库管,https://jobs.51job.com/shijiazhuang/107656270.html?s=01&t=0,38.0278,114.563835,,金源商务广场B座1308室
桂林洁伶工业有限公司,仓管员,https://jobs.51job.com/shijiazhuang/107262227.html?s=01&t=0, , ,, 
桂林洁伶工业有限公司,仓管员（石家庄）,https://jobs.51job.com/shijiazhuang/107262436.html?s=01&t=0,38.0413,114.4881,,桥西区裕华路与中华大街交叉口联邦商务广场
桂林洁伶工业有限公司,导购员,https://jobs.51job.com/shijiazhuang/107262125.html?s=01&t=0,,,,
桂林西麦食品股份有限公司,仓库管理员,https://jobs.51job.com/baoding/107537271.html?s=01&t=0,39.253098,115.795851,,定兴县西麦工业园
国教苑（北京）教育测评科技有限公司,库工,https://jobs.51job.com/shijiazhuang/109862808.html?s=01&t=0,38.015097,114.511933,,裕华区塔南路和建通街交口晶彩中心507
国教苑（北京）教育测评科技有限公司,库管员,https://jobs.51job.com/shijiazhuang/109246243.html?s=01&t=0,38.015097,114.511933,,裕华区塔南路和建通街西北角晶彩中心507
国金黄金股份有限公司,,https://jobs.51job.com/beijing/103099299.html?s=01&t=0,39.913155,116.638826,,
国金黄金股份有限公司,资产管理员（急聘）,https://jobs.51job.com/beijing/103099299.html?s=01&t=0,39.913155,116.638826,,通州区北苑155号北京大唐高新科技园11幢。
国药乐仁堂医药有限公司,物流人员,https://jobs.51job.com/shijiazhuang/89602754.html?s=01&t=0,38.048684,114.520828,,石家庄市
国药器械邯郸有限公司,仓库主管,https://jobs.51job.com/handan/110061705.html?s=01&t=0,36.616453,114.49389,,邯郸市人民东路98号招贤大厦2010号
哈尔滨世一同仁管理咨询有限公司,仓库管理员,https://jobs.51job.com/shijiazhuang/110436461.html?s=01&t=0,,,,石家庄桥西区大经街天滋嘉锂商务中心A座1002
哈尔滨市洪志档案管理有限公司,档案库房保管员,https://jobs.51job.com/shijiazhuang/108232535.html?s=01&t=0,37.986304,114.655073,,高新区恒山街389号格力配套产业园内202号三层西侧
哈出行（哈罗单车hellobike）,仓库主管,https://jobs.51job.com/baoding/110311156.html?s=01&t=0,39.491065,115.981617,,涿州
哈罗出行（哈罗单车hellobike）,仓管兼维修管理,https://jobs.51job.com/tangshan/99188105.html?s=01&t=0,,,,市区
哈罗出行（哈罗单车hellobike）,仓库主管,https://jobs.51job.com/qinhuangdao/107518173.html?s=01&t=0,39.930946,119.562829,6-8千/月,开发区
海鸿达（北京）餐饮管理有限公司,大宗计划主管,https://jobs.51job.com/hebeisheng/106157163.html?s=01&t=0,38.048684,114.520828,,石家庄市
海湾安全技术有限公司,,https://jobs.51job.com/qinhuangdao/103157361.html?s=01&t=0,39.937944,119.553231,,
海湾环境科技（北京）股份有限公司 ,库管员,https://jobs.51job.com/langfang/97118455.html?s=01&t=0,39.495895,116.814221,3-4.5千/月,
邯郸市澳嘉紧固件制造有限公司,仓库经理,https://jobs.51job.com/handan/101889621.html?s=01&t=0,,,,永年区段庄工业区（107国道旁边，沙河南环）
邯郸市澳嘉紧固件制造有限公司,仓库理库员,https://jobs.51job.com/handan/101512550.html?s=01&t=0,,,,永年区段庄工业区（107国道旁边，沙河南环）
邯郸市澳嘉紧固件制造有限公司,送货员,https://jobs.51job.com/handan/110366475.html?s=01&t=0,,,,永年区段庄工业区（107国道旁边，沙河南环）
邯郸市辰星网络科技有限公司,搬运工（双休+奖金）,https://jobs.51job.com/handan/108485442.html?s=01&t=0,36.607966,114.510071,,邯山区财富大厦
邯郸市辰星网络科技有限公司,仓库管理员（双休+奖金）,https://jobs.51job.com/handan/106456439.html?s=01&t=0,36.607966,114.510071,,邯山区财富大厦
邯郸市辰星网络科技有限公司,仓库文员（双休+奖金）,https://jobs.51job.com/handan/106456399.html?s=01&t=0,36.607966,114.510071,,邯山区财富大厦
邯郸市辰星网络科技有限公司,订单处理员（双休+奖金）,https://jobs.51job.com/handan/108485439.html?s=01&t=0,36.607966,114.510071,,邯山区财富大厦
邯郸市辰星网络科技有限公司,快递员（双休+奖金）,https://jobs.51job.com/handan/108485438.html?s=01&t=0,36.607966,114.510071,,邯山区财富大厦
邯郸市辰星网络科技有限公司,理货员（双休+奖金）,https://jobs.51job.com/handan/108485441.html?s=01&t=0,36.607966,114.510071,,邯山区财富大厦
邯郸市辰星网络科技有限公司,调度员（双休+奖金）,https://jobs.51job.com/handan/108485443.html?s=01&t=0,36.607966,114.510071,,邯山区财富大厦
邯郸市辰星网络科技有限公司,物流专员（双休+奖金）,https://jobs.51job.com/handan/108485430.html?s=01&t=0,36.607966,114.510071,,邯山区财富大厦
邯郸市丛台区志博广告装饰材料门市,仓库管理员,https://jobs.51job.com/handan/107343180.html?s=01&t=0,36.617147,114.492736,,丛台区城内中街9号
邯郸市路友工程机械有限公司,仓库管理员,https://jobs.51job.com/handan/104038377.html?s=01&t=0,36.623286,114.479394,2-5千/月,
邯郸市品伟电子商务有限公司,仓库管理员,https://jobs.51job.com/handan/106856936.html?s=01&t=0,36.60687,114.514961,,滨河世纪大厦四楼
邯郸市天润供应链管理有限公司,仓库管理员,https://jobs.51job.com/handan/102135808.html?s=01&t=0,36.57159,114.470989,,邯郸市复兴区学院北路与107国道交叉口向西200米路南
汉旗电子科技（固安）有限公司,库房主管,https://jobs.51job.com/langfang/103783388.html?s=01&t=0, , ,,河北省廊坊市固安县工业园区，兴旺东街北侧
杭州圣曼云科技有限公司,仓库人员,https://jobs.51job.com/hebeisheng/109196935.html?s=01&t=0,,,,衡水市饶阳县经济开发区正港路356号
杭州圣曼云科技有限公司,仓库主管,https://jobs.51job.com/hebeisheng/109197303.html?s=01&t=0,,,,衡水市饶阳县经济开发区正港路356号
杭州维时科技有限公司,仓库管理员,https://jobs.51job.com/shijiazhuang/100039111.html?s=01&t=0,38.04842,114.511182,4-6千/月,
杭州优工品科技有限公司,中心仓高级经理,https://jobs.51job.com/handan/109817608.html?s=01&t=0,,,,永年县东逞舸寰将物流园内
合众高科（北京）环保技术股份有限公司,仓库管理员,https://jobs.51job.com/yanjiao/98552316.html?s=01&t=0,40.003558,116.802534,3-4.5千/月,
和道房地产开发有限公司,库管员,https://jobs.51job.com/baoding/106947281.html?s=01&t=0,39.148205,116.068576,,河北省保定市高碑店市白沟镇和道国际箱包交易中心4层8区
河北奥瑞金包装有限公司,仓库管理员,https://jobs.51job.com/shijiazhuang/107358783.html?s=01&t=0,37.976258,114.384132,,鹿泉区铜冶镇北铜冶村
河北佰家汇电子商务有限公司,仓库主管,https://jobs.51job.com/handan/107380363.html?s=01&t=0,,,,邯山区工业园区经一街与纬九路交叉口西行100米路南
河北博尔萨服装有限公司,理货员,https://jobs.51job.com/shijiazhuang/106982976.html?s=01&t=0,38.054375,114.485475,,石家庄市新华路199号华海环球广场19楼
河北博嘉农业有限公司,仓库管理员,https://jobs.51job.com/shijiazhuang/101682588.html?s=01&t=0,38.033895,114.688043,3-4.5千/月,
河北晨阳汽车贸易有限公司,车队运输调度,https://jobs.51job.com/shijiazhuang/106616376.html?s=01&t=0,38.072378,114.367735,,鹿泉区龙泉东路168号
河北驰马拓电机科技有限公司,仓库管理员,https://jobs.51job.com/xingtai/98663973.html?s=01&t=0,36.981582,115.273618,2-3.5千/月,
河北驰马拓电机科技有限公司,仓库主管,https://jobs.51job.com/xingtai/103949263.html?s=01&t=0,36.981582,115.273618,0.5-2万/月,
河北楮溢医疗用品销售有限公司,仓库管理文员,https://jobs.51job.com/shijiazhuang/108535741.html?s=01&t=0,38.038289,114.504456,,桥西区平安南大街42号
河北鼎基环保工程集团有限公司,过磅管理员,https://jobs.51job.com/xingtai/104197632.html?s=01&t=0,36.881279,114.506333,1.5-2千/月,
河北恩普医疗器械贸易有限公司正定分公司,仓库管理员,https://jobs.51job.com/shijiazhuang/109526604.html?s=01&t=0,38.269913,114.692153,,石家庄市正定县新城铺镇机场路北
河北福成五丰食品股份有限公司燕郊肉类制品分公司,仓库理货员,https://jobs.51job.com/langfang/103748655.html?s=01&t=0,40.008474,116.878973,3-4.5千/月,
河北富博物流有限公司,调度员,https://jobs.51job.com/shijiazhuang/110019245.html?s=01&t=0,38.079097,114.473669,,新华区北城路文苑街交口文苑小区北区13-2-302
河北高路达高速公路服务区物业服务有限公司,5700+武装押运员包吃住+五险一金,https://jobs.51job.com/yanjiao/104280868.html?s=01&t=0,,,,根据家庭住址相对就近安排
河北高路达高速公路服务区物业服务有限公司,6千+安检乘务员包吃住+五险一金,https://jobs.51job.com/yanjiao/104278881.html?s=01&t=0,,,,根据家庭住址相对就近安排
河北高路达高速公路服务区物业服务有限公司,6千+高速公路辅警吃住+五险,https://jobs.51job.com/shijiazhuang/104261790.html?s=01&t=0, , ,,河北省境内高速公路口相对就近上岗
河北谷腾科技有限公司,电商打包工短期,https://jobs.51job.com/shijiazhuang/105658491.html?s=01&t=0,,,,栾城区裕翔街未来科技城二层A02
河北光华荣昌汽车部件有限公司,,https://jobs.51job.com/cangzhou/102964188.html?s=01&t=0,38.353918,117.33248,,
河北广瑞达安全科技有限公司,仓库管理员一配货盘点,https://jobs.51job.com/shijiazhuang/105033097.html?s=01&t=0,38.065269,114.506921,,胜利北大街172号鑫利时间国际B座
河北鹈肱贸易有限公司,后勤仓库管理员,https://jobs.51job.com/handan/98495998.html?s=01&t=0,36.648133,114.503067,2.5-3.5千/月,
河北国美新型建材有限公司,仓库管理员,https://jobs.51job.com/langfang/108332312.html?s=01&t=0,38.571239,116.537399,,河北省廊坊市大城县权村镇
河北国美新型建材有限公司,库管员,https://jobs.51job.com/langfang/98406847.html?s=01&t=0,38.571239,116.537399,2-3千/月,
河北国纤复合材料有限公司,市政工程测绘,https://jobs.51job.com/hengshui/107268246.html?s=01&t=0,37.745191,115.675402,,河北衡水
河北核力同方辐照科技股份有限公司,仓库管理文员,https://jobs.51job.com/baoding/103966375.html?s=01&t=0,38.784515,115.512467,2-3千/月,
河北华发教育科技股份有限公司,仓库管理员,https://jobs.51job.com/tangshan/107977940.html?s=01&t=0,39.683878,118.187192,,河北省唐山市高新技术开发区创业大厦D座
河北华康世纪医疗科技有限责任公司 ,发货员,https://jobs.51job.com/shijiazhuang/105206492.html?s=01&t=0,38.10982,114.340278,2-4千/月,
河北华康世纪医疗科技有限责任公司,发货员,https://jobs.51job.com/shijiazhuang/105206492.html?s=01&t=0,38.10982,114.340278,,石家庄市鹿泉区石柏北大街99号
河北华康世纪医疗科技有限责任公司,复核员,https://jobs.51job.com/shijiazhuang/105204163.html?s=01&t=0,38.10982,114.340278,,石家庄市鹿泉区石柏北大街99号
河北华康世纪医疗科技有限责任公司,收货员,https://jobs.51job.com/shijiazhuang/105204674.html?s=01&t=0,38.10982,114.340278,,石家庄市鹿泉区石柏北大街99号
河北冀保医药销售有限公司,仓库管理员,https://jobs.51job.com/baoding/107389170.html?s=01&t=0,38.886389,115.543687,,北二环东路19号
河北金力新能源科技股份有限公司 ,仓库主管,https://jobs.51job.com/handan/102762585.html?s=01&t=0,36.752804,114.530105,5-8千/月,
河北金力新能源科技股份有限公司,仓库主管,https://jobs.51job.com/handan/102762585.html?s=01&t=0,36.752804,114.530105,,河北省邯郸市永年区工业园区
河北金仑医药有限公司,保管员,https://jobs.51job.com/shijiazhuang/106638054.html?s=01&t=0,38.034389,114.600934,,河北省石家庄市高新技术开发区闽江道326号
河北金震安防技术服务有限公司,6千高速公路辅警+五险,https://jobs.51job.com/zhangjiakou/109786895.html?s=01&t=0,,,,根据家庭住址相对就近安排
河北金震安防技术服务有限公司,武装押运员+五险+食宿,https://jobs.51job.com/shijiazhuang/109784749.html?s=01&t=0,,,,桥东区根据家庭位置相对就近安排
河北金震安防技术服务有限公司,长期合同+高速巡检员,https://jobs.51job.com/chengde/109787182.html?s=01&t=0,,,,承德县根据家庭住址相对就近安排
河北京投高速公路工程建设有限公司,检查站巡防退伍优先+就近,https://jobs.51job.com/yanjiao/107007062.html?s=01&t=0,39.125294,116.579781,,进京高速路口相对就近安排
河北京投高速公路工程建设有限公司,武装护卫员退伍优先+就近,https://jobs.51job.com/handan/107006881.html?s=01&t=0,,,,进京高速路口相对就近安排
河北久申防水建筑材料有限公司,仓库管理员,https://jobs.51job.com/beijing-dxq/109852315.html?s=01&t=0,39.791331,116.538108,,亦庄经济技术开发区经开荣京道A1座
河北科瑞达仪器科技股份有限公司,仓库管理员,https://jobs.51job.com/shijiazhuang/109915653.html?s=01&t=0,38.02192,114.45011,,石家庄市新石北路368号金石工业园2号楼1层
河北科雨防水材料有限公司,仓库管理员,https://jobs.51job.com/shijiazhuang/93491112.html?s=01&t=0,38.406119,114.872768,2-3千/月,
河北兰青食品科技有限公司,数据库管理员,https://jobs.51job.com/baoding/108411193.html?s=01&t=0,,,,天威西路与西三环交叉口西行1000米江城乡政府对面
河北朗迈电子科技有限公司,仓库管理员,https://jobs.51job.com/shijiazhuang/108268218.html?s=01&t=0,38.051395,114.48608,,石家庄市新华区华强电子广场
河北力科纺织有限责任公司,装卸工,https://jobs.51job.com/cangzhou/106105235.html?s=01&t=0,37.900145,116.530701,,东光县铁西棉纺路27号
河北立翔慧科电子设备有限公司,库管员,https://jobs.51job.com/shijiazhuang/82710872.html?s=01&t=0,38.041856,114.659823,2-3千/月,
河北柳工机械贸易有限公司,,https://jobs.51job.com/baoding/101685592.html?s=01&t=0,38.947859,115.973945,,
河北路能物流股份有限公司,车队队长,https://jobs.51job.com/handan/109982551.html?s=01&t=0,38.042284,114.476188,,河北省
河北路能物流股份有限公司,危货司机,https://jobs.51job.com/handan/109982427.html?s=01&t=0,38.042284,114.476188,,河北省
河北迈道汽车服务有限公司,仓库管理员,https://jobs.51job.com/shijiazhuang/103466520.html?s=01&t=0,38.008718,114.494,3-4.5千/月,
河北镁神科技有限公司,仓库统计员,https://jobs.51job.com/xingtai/94142192.html?s=01&t=0,37.065255,115.174925,2-3千/月,
河北明英光电科技有限公司,仓库管理员,https://jobs.51job.com/shijiazhuang/108795579.html?s=01&t=0,38.134394,114.501963,,学府路创业园39号
河北木源泵业有限责任公司,,https://jobs.51job.com/shijiazhuang/82018745.html?s=01&t=0,38.408847,114.599657,,
河北诺迪科贸易有限公司,急聘打包员,https://jobs.51job.com/shijiazhuang/106664647.html?s=01&t=0,38.040904,114.479576,,桥西区海悦天地E座1702室
河北鹏冠科技股份有限公司,仓库管理员,https://jobs.51job.com/langfang/101123332.html?s=01&t=0,39.016712,116.405842,3-4.5千/月,
河北鹏纳贸易有限公司,仓储专员,https://jobs.51job.com/baoding/108104333.html?s=01&t=0,,,,长城北大街与北三环交叉口北行500米路西河北鹏纳贸易有限公司
河北荣赫激光设备科技有限公司,仓库主管,https://jobs.51job.com/hengshui/109638091.html?s=01&t=0,37.890577,116.176998,,河北省衡水市阜城县开发区
河北融盛网络科技有限公司,网站开发,https://jobs.51job.com/shijiazhuang/109988581.html?s=01&t=0,38.05362,114.528352,,长安区广安大街美东国际A座11楼
河北锐思商业管理有限公司,仓库管理员,https://jobs.51job.com/hebeisheng/109467929.html?s=01&t=0,38.048681,114.562428,,河北省石家庄市中山东路508号东胜广场B座2201室
河北瑞鹤医疗器械有限公司,,https://jobs.51job.com/xingtai/103079477.html?s=01&t=0,37.090338,114.474864,,
河北瑞鹤医疗器械有限公司 ,仓库管理员,https://jobs.51job.com/baoding/102484415.html?s=01&t=0,38.861946,115.519928,3.1-5千/月,
河北瑞鹤医疗器械有限公司,仓库管理员,https://jobs.51job.com/xingtai/109616231.html?s=01&t=0,37.090338,114.474864,,桥西区阳光国际
河北瑞鹤医疗器械有限公司,邢台仓库管理员,https://jobs.51job.com/xingtai/103079477.html?s=01&t=0,37.090338,114.474864,,桥西阳光国际小区
河北润超医疗器械贸易有限公司,仓库管理员,https://jobs.51job.com/shijiazhuang/102752640.html?s=01&t=0,37.994715,114.456933,4-5万/年,
河北世博包装食品机械有限公司,,https://jobs.51job.com/shijiazhuang/96351390.html?s=01&t=0,38.045387,114.4941,,
河北顺丰速运有限公司廊坊分公司,00851-物流调度专员,https://jobs.51job.com/langfang/99142628.html?s=01&t=0,39.608341,116.767163,4.5-6.5千/月,
河北顺丰速运有限公司廊坊分公司,仓管员（开发区四海路）,https://jobs.51job.com/langfang/104454133.html?s=01&t=0,39.95682,116.79767,4-6千/月,
河北顺丰速运有限公司廊坊分公司,调度专员,https://jobs.51job.com/langfang/109347722.html?s=01&t=0,39.610761,116.738705,,廊坊市开发区楼庄路9号大数据应用中心5楼
河北泰安安全技术服务有限公司,6千高速公路辅警+五险,https://jobs.51job.com/chengde/101968084.html?s=01&t=0,,,,按照家庭住址相对就近安排
河北泰安安全技术服务有限公司,6千高速收费站巡检员,https://jobs.51job.com/chengde/100416202.html?s=01&t=0,,,,按照家庭住址相对就近安排
河北泰安安全技术服务有限公司,6千高速收费站治安巡防员,https://jobs.51job.com/xingtai/100581183.html?s=01&t=0,,,,根据家庭住址相对就近安排
河北泰安安全技术服务有限公司,高速巡检员+五险一金,https://jobs.51job.com/shijiazhuang/97947969.html?s=01&t=0,,,,按照户籍所在地就近安排
河北泰安安全技术服务有限公司,高速巡检员+五险一金+包吃住,https://jobs.51job.com/hengshui/98061522.html?s=01&t=0, , ,,根据家庭住址相对就近安排
河北泰安安全技术服务有限公司,高速巡检员五险一金,https://jobs.51job.com/xingtai/97933040.html?s=01&t=0,,,,按照家庭住址相对就近安排
河北泰安安全技术服务有限公司,就近巡防员吃住+五险一金,https://jobs.51job.com/shijiazhuang/109277989.html?s=01&t=0,38.01194,114.46841,,按照户籍所在地相对就近安排
河北泰安安全技术服务有限公司,武装押运员+五险+食宿,https://jobs.51job.com/hengshui/97938570.html?s=01&t=0,,,,按照家庭住址相对就近安排
河北泰安安全技术服务有限公司,武装押运员+五险一金+食宿,https://jobs.51job.com/shijiazhuang/97948048.html?s=01&t=0,,,,按照户籍所在地就近安排
河北泰安安全技术服务有限公司,银行押运员+五险+食宿,https://jobs.51job.com/xingtai/97934541.html?s=01&t=0,,,,按照家庭住址相对就近安排
河北天成药业股份有限公司,仓库保管员,https://jobs.51job.com/cangzhou/92314115.html?s=01&t=0,38.288822,116.942536,2.8-3.5千/月,
河北天京中仕信息科技有限公司唐山分公司,聘零基础计算机爱好者,https://jobs.51job.com/tangshan/108850850.html?s=01&t=0,39.630698,118.182673,,路南区世博广场银泰城B馆双创互联网中心9层913
河北拓跋建设工程有限公司 ,材料员（库管）,https://jobs.51job.com/baoding/100673957.html?s=01&t=0,38.628384,114.751455,4.5-6千/月,
河北拓跋建设工程有限公司,材料员（库管）,https://jobs.51job.com/baoding/100673957.html?s=01&t=0,38.628384,114.751455,,曲阳
河北万洲商贸有限公司,库管,https://jobs.51job.com/shijiazhuang/106087789.html?s=01&t=0,38.04032,114.65992,,石家庄高新区湘江道319号天山科技工业园A座21层2101号
河北威正恒集成房屋科技有限公司,仓库管理员,https://jobs.51job.com/shijiazhuang/106118406.html?s=01&t=0,,,,裕翔街过南三环南行三公里路东（206路安瑞科站）
河北新邦医药科技有限公司,高薪诚聘库房拣货员,https://jobs.51job.com/tangshan/97900381.html?s=01&t=0,39.697966,118.17979,,高新区建设路与大庆道交叉口
河北新邦医药科技有限公司,高薪诚聘内勤人员10名五险一金,https://jobs.51job.com/tangshan/97902266.html?s=01&t=0,39.697966,118.17979,,高新区建设路与大庆道交叉口
河北新固为科技有限公司,仓库管理员,https://jobs.51job.com/shijiazhuang/107104093.html?s=01&t=0,38.056529,114.354299,,鹿泉经济开发区御园路99号光谷科技园东孵化楼617室
河北新华欧亚汽配集团有限公司,河北新欧科技招聘搬运工3人,https://jobs.51job.com/xingtai/105961565.html?s=01&t=0, , ,,河北省邢台市清河县王官庄镇王二庄开发区
河北新康立生物科技有限公司,仓库管理员,https://jobs.51job.com/cangzhou/108190531.html?s=01&t=0,38.377495,117.336477,,黄骅市
河北雅威机电设备贸易有限公司,库管,https://jobs.51job.com/shijiazhuang/109858202.html?s=01&t=0,38.111315,114.461326,,新华区友谊北大街与太保路交口
河北阳光和祺贸易有限公司,淘宝库管,https://jobs.51job.com/shijiazhuang/103976346.html?s=01&t=0,38.062437,114.510228,2-3千/月,
河北洋鸿贸易有限公司,库管,https://jobs.51job.com/shijiazhuang/108104024.html?s=01&t=0,,,,107国道南三环北行1公里，107陶瓷批发市场
河北养元智汇饮品股份有限公司 ,六个核桃诚聘运营专员,https://jobs.51job.com/hengshui/101546212.html?s=01&t=0,37.823332,115.712771,3-4.5千/月,
河北养元智汇饮品股份有限公司,六个核桃诚聘物流专员,https://jobs.51job.com/hengshui/110043320.html?s=01&t=0,37.823332,115.712771,,高新技术开发区新区六路南
河北怡和隆祥汽车销售服务有限公司,库管员,https://jobs.51job.com/langfang/108046484.html?s=01&t=0,39.519166,116.745485,,广阳区光明东道65号
河北亿安工程技术股份有限公司,库管,https://jobs.51job.com/shijiazhuang/91947052.html?s=01&t=0,38.066403,114.377441,2.5-4千/月,
河北易腾数码科技有限公司,仓库管理员,https://jobs.51job.com/shijiazhuang/108745063.html?s=01&t=0,38.065562,114.357556,,鹿泉区鹿岛V谷工业园
河北瀛源再生资源开发有限公司,仓储中心主管,https://jobs.51job.com/baoding/104682345.html?s=01&t=0,38.373459,115.067139,,河北省定州市定无路沙河大桥西侧沙河北岸
河北永明地质工程机械有限公司,,https://jobs.51job.com/xingtai/80752200.html?s=01&t=0,37.264265,114.816628,,
河北永通电子科技有限公司,,https://jobs.51job.com/langfang/103255619.html?s=01&t=0,39.526956,116.705674,,
河北永通电子科技有限公司,库管录入收银文员,https://jobs.51job.com/langfang/103255619.html?s=01&t=0,39.526956,116.705674,,银河北路38号永通通信手机城4楼
河北宇佳乡村通物流有限公司,,https://jobs.51job.com/shijiazhuang/98785208.html?s=01&t=0,38.107547,114.524736,,
河北宇佳乡村通物流有限公司,装卸工包食宿招长期的,https://jobs.51job.com/shijiazhuang/98785208.html?s=01&t=0,38.107547,114.524736,,石家庄长安区胜利北街聚和港物流园5路58号
河北泽宏科技股份有限公司,仓库管理员,https://jobs.51job.com/shijiazhuang/109995928.html?s=01&t=0,38.230432,114.218471,,石家庄市平山西柏坡经济开发区轻工路1号
河北展源新能源科技有限公司,仓库管理员,https://jobs.51job.com/baoding/101163442.html?s=01&t=0,38.922775,115.469963,3-4.5千/月,
河北正腾网络科技有限公司,配送员,https://jobs.51job.com/shijiazhuang/99394675.html?s=01&t=0,,,,新华区太和电子城三楼A75诚达网络
河北正腾网络科技有限公司,送货员,https://jobs.51job.com/shijiazhuang/101564759.html?s=01&t=0, , ,,新华区太和电子城三楼A75诚达网络
河北执信雅博医疗器械科技有限公司,仓库管理员,https://jobs.51job.com/shijiazhuang/107140348.html?s=01&t=0,38.052187,114.517884,,长安区建设北大街44号瀚科大厦612
河北中储物流有限公司,受理员,https://jobs.51job.com/shijiazhuang/107160503.html?s=01&t=0,38.096712,114.521659,,长安区柳阳街8号
河北中商惠民,分拣员3000五险+房补+餐补,https://jobs.51job.com/shijiazhuang/106148832.html?s=01&t=0,,,,石家庄栾城窦妪镇段家营中储库申通物流对面
河北紫禾商贸有限公司,仓库管理员,https://jobs.51job.com/shijiazhuang/100710871.html?s=01&t=0,38.080316,114.518782,2.5-4千/月,
贺氏冶金（廊坊）有限公司,仓库管理员,https://jobs.51job.com/langfang/107438508.html?s=01&t=0,39.565025,116.7819,,河北省廊坊市经济技术开发区耀华道朗森汽车产业园2号厂房
恒天然商贸（上海）有限公司,仓库管理员,https://jobs.51job.com/tangshan/101774023.html?s=01&t=0,39.634321,117.700874,,玉田县恒天然牧场
衡水帝博商贸有限公司,送货员,https://jobs.51job.com/hengshui/107446880.html?s=01&t=0,37.747915,115.618442,,中华大街北外环交叉口东北角
衡水民宏食品商贸有限公司,搬运工（工资日结）,https://jobs.51job.com/hengshui/106019826.html?s=01&t=0,,,,衡水市裕华路庆丰街交口澜点羊绒北邻
衡水盛达玻璃制品有限公司,仓库管理员,https://jobs.51job.com/hengshui/95054721.html?s=01&t=0,37.761846,115.789394,2.5-3千/月,
湖北迈睿达供应链股份有限公司,仓库班组长（张家口）,https://jobs.51job.com/zhangjiakou/107512141.html?s=01&t=0,40.656476,114.779126,,张家口市南山经济技术开发区中瑞大街2号
湖北迈睿达供应链股份有限公司,仓库管理员（张家口）,https://jobs.51job.com/zhangjiakou/107511749.html?s=01&t=0,40.656476,114.779126,,张家口市南山经济技术开发区中瑞大街2号
湖北迈睿达供应链股份有限公司,仓库经理（保定）,https://jobs.51job.com/baoding/109414981.html?s=01&t=0,38.828649,115.506934,,工农路
湖北迈睿达供应链股份有限公司,仓库经理（张家口）,https://jobs.51job.com/zhangjiakou/107512395.html?s=01&t=0,40.656476,114.779126,,张家口市南山经济技术开发区中瑞大街2号
湖北迈睿达供应链股份有限公司,仓库客服（张家口）,https://jobs.51job.com/zhangjiakou/108415278.html?s=01&t=0,40.656476,114.779126,,张家口市南山经济技术开发区中瑞大街2号
湖北迈睿达供应链股份有限公司,叉车工（张家口）,https://jobs.51job.com/zhangjiakou/107511634.html?s=01&t=0,40.656476,114.779126,,张家口市南山经济技术开发区中瑞大街2号
湖北迈睿达供应链股份有限公司,物流规划工程师（张家口）,https://jobs.51job.com/zhangjiakou/109984242.html?s=01&t=0,40.656476,114.779126,,张家口市南山经济技术开发区中瑞大街2号
湖北迈睿达供应链股份有限公司,项目客服主管（张家口）,https://jobs.51job.com/zhangjiakou/107750629.html?s=01&t=0,40.656476,114.779126,,张家口市南山经济技术开发区中瑞大街2号
湖北迈睿达供应链股份有限公司,驻场客服（张家口）,https://jobs.51job.com/zhangjiakou/108578367.html?s=01&t=0,40.656476,114.779126,,张家口市南山经济技术开发区中瑞大街2号
华电曹妃甸重工装备有限公司,,https://jobs.51job.com/tangshan/102807931.html?s=01&t=0,39.08981,118.5071,,
华电曹妃甸重工装备有限公司,调度主管,https://jobs.51job.com/tangshan/109206203.html?s=01&t=0,39.08981,118.5071,,唐山市曹妃甸工业区零加
华强方特设计院（厦门）有限公司,仓库管理员,https://jobs.51job.com/handan/108463591.html?s=01&t=0,,,,磁县讲武城镇中华路与邺城引线交叉口向东200米邯郸中华成语文化博览园办公楼
华润雪花啤酒（天津）有限公司,仓库管理员,https://jobs.51job.com/yanjiao/98462797.html?s=01&t=0,,,,河北省三河市燕郊开发区东外环路西侧尹家沟北侧（亚飞汽车北侧）
华氏达控股有限公司,仓库管理员,https://jobs.51job.com/shijiazhuang/70140671.html?s=01&t=0,38.002581,114.515329,,石家庄裕华区仓兴街18号。（润丰物流园西门北行50米路西）
华斯控股股份有限公司,仓储物流主管,https://jobs.51job.com/cangzhou/107866497.html?s=01&t=0,38.500471,115.81676,,沧州市肃宁县尚村镇紫云路北50米
黄骅市方正焊接设备有限公司,外协员,https://jobs.51job.com/cangzhou/107856335.html?s=01&t=0,38.377386,117.3366,,黄骅
汇通达网络股份有限公司,仓储经理,https://jobs.51job.com/shijiazhuang/105349588.html?s=01&t=0,38.041731,114.512945,,桥西区中山路休门街滨江商务大厦A座803
汇通达网络股份有限公司,仓库管理员,https://jobs.51job.com/beijing-hdq/107945176.html?s=01&t=0,39.993306,116.311015,,硅谷
惠达卫浴股份有限公司,生产调度员,https://jobs.51job.com/tangshan/107511077.html?s=01&t=0,39.474538,118.150145,,唐山市丰南区黄各庄镇惠达路7号
吉利集团（凯悦项目 ）,物料操控主管工程师,https://jobs.51job.com/zhangjiakou/105103759.html?s=01&t=0,40.667736,114.790769,0.5-1万/月,
建华建材（河北）有限公司,仓库管理员,https://jobs.51job.com/xingtai/98625181.html?s=01&t=0,36.878832,114.457861,2.5-3.5千/月,
建华建材（河北）有限公司,仓库主管/库房主管,https://jobs.51job.com/xingtai/110346499.html?s=01&t=0,,,,邢台沙河市赞善办事处福益村（沙河市职教中心西50米）
建华物流有限公司,调度员,https://jobs.51job.com/cangzhou/103416062.html?s=01&t=0,38.301685,116.961496,6-8万/年,
江苏天诚智能集团,仓库管理员,https://jobs.51job.com/shijiazhuang/101716922.html?s=01&t=0,38.028311,114.489341,2-3千/月,
江苏祥狮物流有限公司,仓储部副主管,https://jobs.51job.com/langfang/99666655.html?s=01&t=0,39.256829,116.839528,3.5-5千/月,
江苏中博通信有限公司,仓库管理员（央企 上市公司）,https://jobs.51job.com/baoding/105088062.html?s=01&t=0,38.883788,115.465432,,河北省保定市竞秀区
捷富凯国际物流（中国）有限公司,仓库文员,https://jobs.51job.com/langfang/109103665.html?s=01&t=0,39.514934,116.745268,,河北省廊坊市安次区东环路55号 龙河工业区普洛斯物流园A4 U1/U2单元
金螳螂家装电子商务（苏州）有限公司 ,订单管理员,https://jobs.51job.com/cangzhou/102110445.html?s=01&t=0,38.327466,116.823979,3-5千/月,
金螳螂家装电子商务（苏州）有限公司,订单管理员,https://jobs.51job.com/cangzhou/102110445.html?s=01&t=0,38.327466,116.823979,,红星美凯龙北侧泰达大办公楼底商
京信通信系统（中国）有限公司,仓储物流主管,https://jobs.51job.com/shijiazhuang/103332267.html?s=01&t=0,38.036831,114.518035,4.5-6千/月,
精进电动科技股份有限公司,产控物流部-库房主管助理（正定）,https://jobs.51job.com/hebeisheng/106366591.html?s=01&t=0, , ,, 
久久丫 ,仓库主管,https://jobs.51job.com/yanjiao/104379358.html?s=01&t=0,39.982976,116.807665,0.6-1万/月,
久久丫,仓库管理员,https://jobs.51job.com/yanjiao/89296505.html?s=01&t=0,39.982976,116.807665,,创意谷街771号燕京航城北门对面
久久丫,仓库主管,https://jobs.51job.com/yanjiao/104379358.html?s=01&t=0,39.982976,116.807665,,创意谷街771号燕京航城北门对面
久久丫,库房主管,https://jobs.51job.com/yanjiao/108470449.html?s=01&t=0,39.982976,116.807665,,创意谷街771号燕京航城北门对面
凯爱瑞配料贸易（上海）有限公司,Warehouse Manager,https://jobs.51job.com/langfang/106976566.html?s=01&t=0,39.894379,116.937886,,廊坊市大厂工业园区李大线西侧新页业路北侧
康得复合材料有限责任公司,库房管理员,https://jobs.51job.com/langfang/101534828.html?s=01&t=0,39.310645,116.774829,3.5-4.5千/月,
科世达（上海）管理有限公司,仓库管理员,https://jobs.51job.com/baoding/98815035.html?s=01&t=0,38.886565,115.49481,3-4.5千/月,
空气化工产品（邢台）有限公司,美资500强企业-运输调度员(职位编号：23732BR),https://jobs.51job.com/xingtai/104703338.html?s=01&t=0,37.043531,114.451326,,
跨越速运集团有限公司,仓库管理员,https://jobs.51job.com/langfang/108881125.html?s=01&t=0,39.577375,116.761222,,廊坊开发区艾力枫社高尔夫花园
廊坊爱依瑞斯家具有限公司,入库工,https://jobs.51job.com/langfang/106553368.html?s=01&t=0,39.756588,117.044892,,河北省廊坊市香河县淑阳工业园鑫阳路1号
廊坊博格思拓普汽车部件有限公司,仓库管理员,https://jobs.51job.com/langfang/79873954.html?s=01&t=0,39.587533,116.768847,,廊坊开发区
廊坊国美铝业有限公司,仓库管理员,https://jobs.51job.com/langfang/102283945.html?s=01&t=0,39.101183,116.784795,4-6千/月,
廊坊华宇创新科技有限公司,仓库管理员,https://jobs.51job.com/langfang/110256307.html?s=01&t=0,39.568428,116.795195,,廊坊市开发区耀华道3号
廊坊辉腾佰世商贸有限公司,配货员,https://jobs.51job.com/langfang/105080680.html?s=01&t=0,39.571503,116.775417,2-3千/月,
廊坊开发区环星焊接材料有限公司,仓库管理员,https://jobs.51job.com/langfang/89878106.html?s=01&t=0,39.571955,116.775357,2.5-5千/月,
廊坊开发区壹乐商贸有限公司,,https://jobs.51job.com/langfang/102873642.html?s=01&t=0,39.558507,116.791095,,
廊坊开发区壹乐商贸有限公司,网店仓库打包员,https://jobs.51job.com/langfang/85728543.html?s=01&t=0,39.558507,116.791095,,廊坊市开发区创业路600号万通实业院内综合楼四楼
廊坊开发区壹乐商贸有限公司,网店仓库打包员（广州）,https://jobs.51job.com/guangzhou-hdq/107797219.html?s=01&t=0, , ,,花东镇先科路8号微观智库
廊坊市东方制衣有限公司,库房  库管(职位编号：19615703404805),https://jobs.51job.com/langfang/74707489.html?s=01&t=0,39.546701,116.706895,,广阳区广阳道162号3534小区工厂
廊坊市行营钓具有限公司,仓库管理员,https://jobs.51job.com/langfang/104469678.html?s=01&t=0,,,,河北省廊坊市安次区龙河经济开发区慧谷梦工厂113栋（富士康东邻）
廊坊市行营钓具有限公司,高薪+仓储助理+全勤奖,https://jobs.51job.com/langfang/95304664.html?s=01&t=0,,,,河北省廊坊市安次区龙河经济开发区慧谷梦工厂113栋（富士康东邻）
廊坊市建安建筑工程有限公司,工程建筑仓库管理员,https://jobs.51job.com/langfang/62879181.html?s=01&t=0,39.592178,116.765921,3-4.5千/月,
廊坊市久洋广告有限公司,仓库管理员,https://jobs.51job.com/langfang/102773542.html?s=01&t=0,39.526161,116.70963,3-4千/月,
廊坊市勤o商贸有限公司,售前售后客服双休,https://jobs.51job.com/langfang/106861274.html?s=01&t=0,,,,广阳区金光道东行光大银行北门3层304
廊坊市秋田岩土工程机械有限公司 ,仓库管理员,https://jobs.51job.com/langfang/100437532.html?s=01&t=0,39.483352,116.672231,3-4.5千/月,
廊坊市素泰商贸有限公司,仓库管理员,https://jobs.51job.com/langfang/96604387.html?s=01&t=0,39.072458,116.707768,3-4.5千/月,
廊坊市素泰商贸有限公司,库管,https://jobs.51job.com/langfang/108991482.html?s=01&t=0,,,,市区
廊坊市新世纪步行街美之约化妆品商场,库房调货员,https://jobs.51job.com/langfang/44665398.html?s=01&t=0,39.581778,116.766193,,廊坊市经济开发区金源道72号中纺城D座三楼
廊坊市新思维科技有限公司 ,库房主管,https://jobs.51job.com/langfang/99706760.html?s=01&t=0,39.592213,116.779303,3-5千/月,
廊坊市新思维科技有限公司,库房主管,https://jobs.51job.com/langfang/99706760.html?s=01&t=0,39.592213,116.779303,,开发区翠青北道18号
廊坊市意达园林塑料制品有限公司,出入库管理,https://jobs.51job.com/langfang/101101407.html?s=01&t=0,,,,廊坊市安次区仇庄工业园
廊坊市意达园林塑料制品有限公司,库管,https://jobs.51job.com/langfang/100033779.html?s=01&t=0,,,,廊坊市安次区仇庄工业园
廊坊市英普医疗用品有限公司 ,仓库管理员,https://jobs.51job.com/langfang/105697315.html?s=01&t=0,39.533553,116.716444,4.5-6千/月,
廊坊市英普医疗用品有限公司,仓库管理员,https://jobs.51job.com/langfang/105697315.html?s=01&t=0,39.533553,116.716444,,廊坊市爱民东道浙商广场B座803室
廊坊天正汉德塑料制品有限公司 ,仓库管理员,https://jobs.51job.com/langfang/85603391.html?s=01&t=0,39.578066,116.775306,3-4.5千/月,
廊坊天正汉德塑料制品有限公司,仓库管理员,https://jobs.51job.com/langfang/85603391.html?s=01&t=0,39.578066,116.775306,,廊坊市开发区
廊坊益田投资开发有限公司,仓库管理主管/专员,https://jobs.51job.com/langfang/85055006.html?s=01&t=0,,,,河北省廊坊市永清工业园区益田大厦
廊坊纵横运输有限公司,运输调度,https://jobs.51job.com/langfang/105123069.html?s=01&t=0,38.700188,116.646516,4.5-6千/月,
朗世坤成房屋科技有限公司,,https://jobs.51job.com/langfang/76296020.html?s=01&t=0,39.285237,116.72761,,
朗世坤成房屋科技有限公司,仓库管理员,https://jobs.51job.com/langfang/86541982.html?s=01&t=0,39.285237,116.72761,3-4.5千/月,
力姆泰克（北京）传动设备股份有限公司 ,仓储管理员（大厂）,https://jobs.51job.com/hebeisheng/99262187.html?s=01&t=0,39.925716,116.912613,3-5千/月,
力姆泰克（北京）传动设备股份有限公司,仓储管理员（大厂）,https://jobs.51job.com/hebeisheng/103534615.html?s=01&t=0,39.925716,116.912613,3-5千/月,
力姆泰克（北京）传动设备股份有限公司,库房统计员,https://jobs.51job.com/hebeisheng/107835342.html?s=01&t=0,39.925716,116.912613,,大厂县潮白河工业区
力姆泰克（北京）传动设备股份有限公司,库房主管,https://jobs.51job.com/hebeisheng/95670950.html?s=01&t=0,39.925716,116.912613,,大厂县潮白河工业区
立讯精密工业（保定）有限公司,仓储组长,https://jobs.51job.com/baoding/110250511.html?s=01&t=0,38.494168,115.590043,,蠡县
辽宁爱普罗斯饲料有限公司,原料保管,https://jobs.51job.com/tangshan/109125468.html?s=01&t=0,,,,唐山市芦台经济开发区二社区（北粮农业西侧）
邻里行社区服务保定有限公司,仓库管理员/库管+采购,https://jobs.51job.com/baoding/108971073.html?s=01&t=0,,,,莲池区恒祥北大街假日山水华庭东北门底商邻里行
骆驼集团股份有限公司,仓库管理员（石家庄）,https://jobs.51job.com/shijiazhuang/104294342.html?s=01&t=0,38.151714,114.577484,2.5-6千/月,
麦格纳座椅（张家口）有限公司,仓库主管,https://jobs.51job.com/zhangjiakou/101881501.html?s=01&t=0,40.656476,114.779126,,张家口市怀安县南山经济开发区
梅尔伯格保定机械设备制造有限公司,库房人员,https://jobs.51job.com/baoding/105769819.html?s=01&t=0,38.783926,115.518158,,清苑区发展东街
梅尔伯格保定机械设备制造有限公司,库管,https://jobs.51job.com/baoding/99778626.html?s=01&t=0,38.783926,115.518158,,清苑区发展东街
美菜网,,https://jobs.51job.com/shijiazhuang/103032574.html?s=01&t=0,38.151714,114.577484,,
美菜网,仓储经理（石家庄）,https://jobs.51job.com/shijiazhuang/104459661.html?s=01&t=0,38.048312,114.521529,1-1.5万/月,
美菜网,仓储调度员/主管,https://jobs.51job.com/baoding/105943447.html?s=01&t=0,38.879989,115.47146,,保定市
美菜网,仓储运营经理（石家庄）,https://jobs.51job.com/shijiazhuang/107777507.html?s=01&t=0,38.174655,114.560876,,正定县深国际现代综合物流港
美菜网,库存主管（石家庄）,https://jobs.51job.com/beijing/107312605.html?s=01&t=0,39.978552,116.407935,,安贞路安贞医院对面新华金融大厦3层
美菜网,收退主管（石家庄）,https://jobs.51job.com/beijing/107312353.html?s=01&t=0,39.978552,116.407935,,安贞路安贞医院对面新华金融大厦3层
美克家居-美克美家/A.R.T/YVVY/ZEST,家具服务技师/五险一金/石家庄,https://jobs.51job.com/shijiazhuang/102116917.html?s=01&t=0,38.096712,114.521659,,长安区柳阳街8号中储物流中心 美克美家
美团-大众点评 ,美团点评B2B事业部-现场调度,https://jobs.51job.com/shijiazhuang/102654787.html?s=01&t=0,38.048312,114.521532,0.6-1.2万/月,
美团点评,B2B仓储经理,https://jobs.51job.com/shijiazhuang/108374231.html?s=01&t=0,38.031348,115.209104,,当地办公室
美团点评,美团点评B2B事业部-仓库主管,https://jobs.51job.com/shijiazhuang/102654042.html?s=01&t=0,38.048312,114.521532,,石家庄
美团点评,美团点评B2B事业部-现场调度,https://jobs.51job.com/shijiazhuang/102654787.html?s=01&t=0,38.048312,114.521532,,石家庄
美团点评,美团点评仓储经理(职位编号：5496),https://jobs.51job.com/shijiazhuang/108986501.html?s=01&t=0,38.042301,114.547615,,长安区裕华东路133号方北大厦A座
名创优品（广州）有限责任公司 ,调度文员,https://jobs.51job.com/langfang/105723159.html?s=01&t=0,39.601235,116.686463,4.5-6千/月,
名创优品（广州）有限责任公司,调度文员,https://jobs.51job.com/langfang/105723159.html?s=01&t=0,39.601235,116.686463,,廊坊市广阳区凤舞道10号宝湾物流园8号库
耐力股份有限公司,库管员,https://jobs.51job.com/shijiazhuang/68474352.html?s=01&t=0,37.907481,114.551804,,石家庄装备制造基地
南昌良良实业有限公司 ,石家庄仓管,https://jobs.51job.com/shijiazhuang/89897566.html?s=01&t=0,38.107547,114.524736,3-4.5千/月,
南昌良良实业有限公司,石家庄仓管,https://jobs.51job.com/shijiazhuang/89897566.html?s=01&t=0,38.107547,114.524736,,石家庄市 长安区聚和港物流园C2库
南京泓惠贸易有限公司 ,储运主管,https://jobs.51job.com/yanjiao/97992735.html?s=01&t=0,39.972971,116.854447,4.5-6千/月,
南京泓惠贸易有限公司,储运主管,https://jobs.51job.com/yanjiao/97992736.html?s=01&t=0,39.972971,116.854447,4.5-6千/月,
内蒙古伊利实业集团股份有限公司,健康饮品供应链运营中心物流组调度员（分仓）(职位编号：yili012714),https://jobs.51job.com/innermongolia/109915377.html?s=01&t=0,,,,北京市、呼和浩特市、定州市、济源市、漯河市、郑州市、昆明市、徐州市、上海市、柳州市、南昌市
能高共建(中国)集团,库管（大兴采育急聘）,https://jobs.51job.com/beijing-dxq/98359333.html?s=01&t=0,39.656624,116.665903,4-4.1千/月,
能源供应协调中心,,https://jobs.51job.com/langfang/69055866.html?s=01&t=0,39.559627,116.781068,,
能源供应协调中心,车辆调度主管,https://jobs.51job.com/langfang/69055866.html?s=01&t=0,39.559627,116.781068,,河北省廊坊经济技术开发区
欧伏电气股份有限公司,仓库管理员,https://jobs.51job.com/yanjiao/103715049.html?s=01&t=0,39.992658,116.8109,3-4.5千/月,
帕缇朵（北京）国际生物科技有限公司,,https://jobs.51job.com/cangzhou/103297450.html?s=01&t=0,38.597233,116.83955,,
鹏驰五金制品有限公司,仓库送货司机（包住，五险）,https://jobs.51job.com/tangshan/108714416.html?s=01&t=0,39.621356,118.215102,,河北省唐山市路南区复兴路新佟街11号
鹏驰五金制品有限公司,仓库送货员（包三餐，包住，五险）,https://jobs.51job.com/beijing-cyq/105536468.html?s=01&t=0,39.820243,116.489907,,小红门东马路经开万佳国际机械城C121
鹏驰五金制品有限公司,仓库送货员（包住，五险）,https://jobs.51job.com/tangshan/109456859.html?s=01&t=0,39.621356,118.215102,,河北省唐山市路南区复兴路新佟街11号
鹏驰五金制品有限公司,销售代表,https://jobs.51job.com/tangshan/108814228.html?s=01&t=0,39.621356,118.215102,,河北省唐山市路南区复兴路新佟街11号
平湖翊天汽车零部件有限公司,仓库保管员,https://jobs.51job.com/zhangjiakou/97374498.html?s=01&t=0, , ,,南山经济产业园
企事通集团有限公司,仓储物流主管,https://jobs.51job.com/shijiazhuang/100924582.html?s=01&t=0, , ,,栾城区楼底镇东尹村尹一街北四巷43号
千仞网络科技河北有限公司,仓管配货,https://jobs.51job.com/shijiazhuang/110337559.html?s=01&t=0,37.949307,115.224453,,辛集市
秦皇岛金海食品工业有限公司,,https://jobs.51job.com/qinhuangdao/103206853.html?s=01&t=0,39.943641,119.484398,,
秦皇岛靖坤食品有限责任公司,盯线库管,https://jobs.51job.com/qinhuangdao/109490613.html?s=01&t=0,39.719052,119.16938,,昌黎县
秦皇岛尼特智能科技有限公司,库管员,https://jobs.51job.com/qinhuangdao/103886368.html?s=01&t=0,39.980429,119.577109,2.3-2.8千/月,
秦皇岛首创思泰意达环保科技有限公司,仓库管理员,https://jobs.51job.com/qinhuangdao/107459923.html?s=01&t=0,,,,秦皇岛开发区温泉湖路9号
秦皇岛首创思泰意达环保科技有限公司,仓库主管,https://jobs.51job.com/qinhuangdao/107904901.html?s=01&t=0, , ,,秦皇岛开发区温泉湖路9号
秦皇岛中仕科技开发有限公司 ,4K无经验转行互联网 双休+五险一金,https://jobs.51job.com/qinhuangdao/95914525.html?s=01&t=0,39.948214,119.607122,4-6千/月,
秦皇岛中仕科技开发有限公司,4K无经验转行互联网  双休+五险一金,https://jobs.51job.com/qinhuangdao/95914525.html?s=01&t=0,39.948214,119.607122,,秦皇岛市海港区建设大街183号金贸国际22楼2203
秦皇岛中仕科技开发有限公司,高薪转行技术 无经验也可,https://jobs.51job.com/qinhuangdao/96285299.html?s=01&t=0,39.948214,119.607122,4-6千/月,
秦皇岛中仕科技开发有限公司,网络部双休五险无经验要求,https://jobs.51job.com/qinhuangdao/96120504.html?s=01&t=0,39.948214,119.607122,4-6千/月,
青岛金珠山物流有限公司,诚聘送货员（普工）包食宿,https://jobs.51job.com/langfang/104164330.html?s=01&t=0,36.396258,118.621014,6-8千/月,
青岛金珠山物流有限公司,诚聘物流专员（送货员）包食宿,https://jobs.51job.com/baoding/104270390.html?s=01&t=0,36.396258,118.621014,6-8千/月,
青岛平宇物流有限公司,,https://jobs.51job.com/zhangjiakou/103012232.html?s=01&t=0,40.763518,114.92206,,
青岛万嘉集运物流有限公司石家庄分公司 ,场站,https://jobs.51job.com/shijiazhuang/105621446.html?s=01&t=0,37.935081,114.53318,3-5千/月,
青岛万嘉集运物流有限公司石家庄分公司,物流车队调度,https://jobs.51job.com/shijiazhuang/102947870.html?s=01&t=0,38.029033,114.554062,4-6千/月,
人民电器集团有限公司,仓库管理员,https://jobs.51job.com/shijiazhuang/103928023.html?s=01&t=0,,,,藁城区良村307国道辅路北侧
人人车,库管,https://jobs.51job.com/tangshan/103926737.html?s=01&t=0,,,,世博互联网双创中心1206
赛铭瑞汽车零部件（廊坊）有限公司,包装工程师,https://jobs.51job.com/langfang/101698607.html?s=01&t=0, , ,,香河县新兴产业示范区（现代产业园）宝海路4号
赛史品威奥（唐山）结构复合材料有限公司,仓库管理员,https://jobs.51job.com/tangshan/100824798.html?s=01&t=0,39.813483,118.171592,,林荫南路
三河亮克威泽工业涂料有限公司,仓库管理员,https://jobs.51job.com/yanjiao/105399009.html?s=01&t=0,,,,燕郊开发区欧伏路82号
森德（中国）暖通设备有限公司,大厂森德仓库管理员,https://jobs.51job.com/langfang/108302756.html?s=01&t=0,39.925709,116.912612,,大厂回族自治县潮白河工业园
森德（中国）暖通设备有限公司,河北大厂森德库房管理员,https://jobs.51job.com/langfang/108539536.html?s=01&t=0,39.925709,116.912612,,大厂回族自治县潮白河工业园
山东海裕远洋渔业有限公司,工资10天一结包吃住,https://jobs.51job.com/weihai/106047574.html?s=01&t=0,,,,山东威海海峰北路9号
山东海裕远洋渔业有限公司,招搬运,https://jobs.51job.com/weihai/106219894.html?s=01&t=0,,,,山东威海海峰北路9号
山东海裕远洋渔业有限公司,招搬运工,https://jobs.51job.com/weihai/106113339.html?s=01&t=0,,,,山东威海海峰北路9号
山东居安特消防科技有限公司,仓库管理员,https://jobs.51job.com/shijiazhuang/101851308.html?s=01&t=0,37.995165,114.520918,,裕华区仓盛路9号
山东舒朗服装服饰股份有限公司,舒朗女装货品调配（办公室）,https://jobs.51job.com/shijiazhuang/108300144.html?s=01&t=0,38.031208,114.501765,,桥东区东风路31号舒朗专卖二楼
上海宝尊电子商务有限公司,仓储专员(J17820),https://jobs.51job.com/langfang/106417547.html?s=01&t=0,39.468049,116.784435,,河北省廊坊市安次区普洛斯廊坊龙河物流园
上海宝尊电子商务有限公司,高级物流专员(J17373),https://jobs.51job.com/langfang/104920622.html?s=01&t=0,39.468049,116.784435,6-8千/月,
上海宝尊电子商务有限公司,数据专员(J17806),https://jobs.51job.com/langfang/106215621.html?s=01&t=0,39.468049,116.784435,,河北省廊坊市安次区普洛斯廊坊龙河物流园
上海帝西恩精密工具有限公司,,https://jobs.51job.com/langfang/82959846.html?s=01&t=0,39.566903,116.784747,,
上海航利实业有限公司,仓库管理员（秦皇岛）,https://jobs.51job.com/qinhuangdao/107689967.html?s=01&t=0,39.941748,119.608531,,秦皇岛
上海佳轩物流有限公司,仓储物流主管,https://jobs.51job.com/zhangjiakou/107324328.html?s=01&t=0,40.731294,114.923371,,张家口南山经济开发区中瑞大街5号（近吉利汽车）
上海佳轩物流有限公司,叉车兼仓库管理员,https://jobs.51job.com/zhangjiakou/106598396.html?s=01&t=0,40.731294,114.923371,,张家口市张家口南山经济开发区中瑞大街5号（近吉利汽车）
上海嘉进物流有限公司,调度（宝马项目）,https://jobs.51job.com/yanjiao/103942340.html?s=01&t=0,39.999289,116.806151,4.5-6千/月,
上海嘉进物流有限公司,现场调度操作员,https://jobs.51job.com/yanjiao/106142643.html?s=01&t=0,39.999289,116.806151,,潮白大街89号
上海金万年实业发展有限公司,仓管员,https://jobs.51job.com/shijiazhuang/110297419.html?s=01&t=0,38.053371,114.505675,,河北省石家庄南三条正东路33号东方文化市场二楼外围9B
上海立邦长润发涂料有限公司,仓库管理员,https://jobs.51job.com/shijiazhuang/104010300.html?s=01&t=0,38.238507,114.510715,3-4.5千/月,
上海龙渤物流有限公司,仓管员/物流项目专员（第三方物流，有项目经验优先）,https://jobs.51job.com/baoding/66352288.html?s=01&t=0,38.808011,115.472823,3-4.5千/月,
上海诺友机械有限公司,仓库管理员,https://jobs.51job.com/cangzhou/108958179.html?s=01&t=0,38.31022,116.845272,,河北沧州
上海庆庆物流有限公司,物流现场操作,https://jobs.51job.com/shijiazhuang/108927612.html?s=01&t=0,37.982559,114.541643,,栾城县鑫源西路99号
上海日弘企业管理咨询有限公司,工具管理担当（日语熟练）,https://jobs.51job.com/langfang/101544258.html?s=01&t=0,39.444485,116.30542,,河北省廊坊市固安
上海泰美医疗器械有限公司,医疗器械仓库管理员,https://jobs.51job.com/shijiazhuang/101702218.html?s=01&t=0,38.048221,114.521382,3-4.5千/月,
上海无忧供应链管理有限公司,运输调度,https://jobs.51job.com/langfang/104829778.html?s=01&t=0,39.602527,116.686737,4.5-6.5千/月,
上海希地供应链管理有限公司,,https://jobs.51job.com/shijiazhuang/101926031.html?s=01&t=0,38.06359,114.55107,,
上海宜来卫浴有限公司 ,仓库班长,https://jobs.51job.com/tangshan/104394529.html?s=01&t=0,39.254648,118.212737,3.5-3.8千/月,
上海宜来卫浴有限公司,仓储经理（唐山）,https://jobs.51job.com/tangshan/108611062.html?s=01&t=0,39.426041,118.353479,,丰南区大新庄
上海宜来卫浴有限公司,仓储主管（唐山）,https://jobs.51job.com/tangshan/109257369.html?s=01&t=0,39.426041,118.353479,,丰南区大新庄
上海宜来卫浴有限公司,仓库班长,https://jobs.51job.com/tangshan/104394529.html?s=01&t=0,39.254648,118.212737,,唐山南堡开发区
上海宜来卫浴有限公司,仓库主管,https://jobs.51job.com/tangshan/100486539.html?s=01&t=0,39.426041,118.353479,,丰南区大新庄
上海益中亘泰（集团）股份有限公司廊坊分公司,工程调度,https://jobs.51job.com/langfang/108477460.html?s=01&t=0,39.526793,116.727711,,广阳区新开路51号管道局医院
上海元通座椅系统有限公司,,https://jobs.51job.com/langfang/103172166.html?s=01&t=0,39.592911,116.755647,,
上海元通座椅系统有限公司 ,输单员/账务员,https://jobs.51job.com/langfang/104165084.html?s=01&t=0,39.592911,116.755647,3-4.5千/月,
上海元通座椅系统有限公司,仓库管理员,https://jobs.51job.com/langfang/103172166.html?s=01&t=0,39.592911,116.755647,,廊坊经济技术开发区云鹏道
上海元通座椅系统有限公司,输单员/账务员,https://jobs.51job.com/langfang/104165084.html?s=01&t=0,39.592911,116.755647,,廊坊经济技术开发区云鹏道
上海找钢网信息科技股份有限公司,调度（邯郸）,https://jobs.51job.com/handan/105443329.html?s=01&t=0,36.618485,114.474741,,邯郸市复兴区人民西路宝利大厦16楼1609室
上海中智项目外包咨询服务有限公司,,https://jobs.51job.com/langfang/98529028.html?s=01&t=0,39.444485,116.30542,,
尚禹河北电子科技股份有限公司,仓库管理员,https://jobs.51job.com/shijiazhuang/104862409.html?s=01&t=0,38.024444,114.447276,3-4.5千/月,
深海之澜快时尚服装连锁,物流主管,https://jobs.51job.com/shijiazhuang/109949076.html?s=01&t=0,38.053779,114.490037,,新华路金指数商务广场A座10楼1001室
深圳欧瑞特供应链管理有限公司 ,仓管员(石家庄）,https://jobs.51job.com/shijiazhuang/94900511.html?s=01&t=0,38.096708,114.521654,2.8-4千/月,
深圳欧瑞特供应链管理有限公司,仓储组长,https://jobs.51job.com/shijiazhuang/108468036.html?s=01&t=0,38.096708,114.521654,,石家庄市桥东区柳阳街8号（中储物流院内）
深圳欧瑞特供应链管理有限公司,仓管员(石家庄）,https://jobs.51job.com/shijiazhuang/94900511.html?s=01&t=0,38.096708,114.521654,,石家庄市桥东区柳阳街8号（中储物流院内）
深圳市广宁股份有限公司,仓管员,https://jobs.51job.com/cangzhou/101814685.html?s=01&t=0,38.377495,117.336477,,黄骅市
深圳市凯依克物流有限公司,现场操作员,https://jobs.51job.com/xingtai/107662945.html?s=01&t=0,37.015048,114.5459,,经济开发区长安路1688号
深圳综合信兴物流有限公司 ,仓库主管,https://jobs.51job.com/langfang/103299965.html?s=01&t=0,39.327852,116.505428,5-6千/月,
深圳综合信兴物流有限公司,仓库主管,https://jobs.51job.com/langfang/103299965.html?s=01&t=0,39.327852,116.505428,,永清县
神州数码供应链,仓储专业主管,https://jobs.51job.com/langfang/106254540.html?s=01&t=0,39.580629,116.805954,,廊坊安次龙河高新区南关庄普洛斯物流园
盛辉物流集团有限公司,物流操作员,https://jobs.51job.com/shijiazhuang/55026881.html?s=01&t=0,37.959822,114.591667,3-3.5千/月,
石家庄阿甲科技有限公司,仓库管理员+4千包吃住,https://jobs.51job.com/shijiazhuang/92092676.html?s=01&t=0,38.041111,114.487356,3-5千/月,
石家庄宝丰化工有限公司 ,仓储物流主管,https://jobs.51job.com/shijiazhuang/105578992.html?s=01&t=0,37.906013,114.527914,4.5-6千/月,
石家庄铂瑞化工科技有限公司,,https://jobs.51job.com/shijiazhuang/100669752.html?s=01&t=0,38.105782,114.449154,,
石家庄铂瑞化工科技有限公司,仓库管理员,https://jobs.51job.com/shijiazhuang/100669752.html?s=01&t=0,38.105782,114.449154,,石家庄新华区田家庄新区
石家庄博旷商贸有限公司,,https://jobs.51job.com/shijiazhuang/92243379.html?s=01&t=0,38.105803,114.429503,,
石家庄晨光办公用品有限公司,仓库理货员,https://jobs.51job.com/shijiazhuang/109547236.html?s=01&t=0,38.118144,114.426097,,新华区古城西路利得铝材市场上京中储物流园5号库
石家庄晨光办公用品有限公司,仓库理货员（新华区）,https://jobs.51job.com/shijiazhuang/109535030.html?s=01&t=0,38.118144,114.426097,,新华区古城西路利得铝材市场上京中储物流园5号库
石家庄承孝企业管理咨询有限公司 ,仓库管理（五险+）,https://jobs.51job.com/shijiazhuang/99586209.html?s=01&t=0,38.05167,114.488653,3.5-6千/月,
石家庄承孝企业管理咨询有限公司,仓库管理（五险+）,https://jobs.51job.com/shijiazhuang/99586209.html?s=01&t=0,38.05167,114.488653,,河北石家庄市新华区民族路女人世界大厦13 楼1306室（原金拓大厦）
石家庄丛远商贸有限公司,仓库文员,https://jobs.51job.com/shijiazhuang/109191498.html?s=01&t=0,,,,新华区大安舍国达物流园区
石家庄帝奥帝康体育设施有限公司,仓库管理员,https://jobs.51job.com/shijiazhuang/107569427.html?s=01&t=0,38.013942,114.577997,,东开发区兴业街32号奥龙药业院内
石家庄典尊贸易有限公司 ,仓库管理员,https://jobs.51job.com/shijiazhuang/98611624.html?s=01&t=0,38.053211,114.504691,2.5-3.5千/月,
石家庄典尊贸易有限公司,仓库管理员,https://jobs.51job.com/shijiazhuang/98611624.html?s=01&t=0,38.053211,114.504691,,正东路33太和商务大厦10楼1009
石家庄鼎旭商贸有限公司,库管,https://jobs.51job.com/shijiazhuang/106552686.html?s=01&t=0,38.051282,114.488892,,民族路69号625室
石家庄鼎旭商贸有限公司,送货工,https://jobs.51job.com/shijiazhuang/85118760.html?s=01&t=0,38.051282,114.488892,3-4千/月,
石家庄鼎旭商贸有限公司,物流人员,https://jobs.51job.com/shijiazhuang/106552698.html?s=01&t=0,38.051282,114.488892,,民族路69号625室
石家庄广顺汽车贸易有限公司,零件计划员,https://jobs.51job.com/shijiazhuang/104687606.html?s=01&t=0,38.075571,114.557994,5-8千/月,
石家庄浩睿文化传播有限公司 ,库管,https://jobs.51job.com/shijiazhuang/100898006.html?s=01&t=0,38.045156,114.417447,2-3千/月,
石家庄浩睿文化传播有限公司,库管外勤,https://jobs.51job.com/shijiazhuang/102734493.html?s=01&t=0,38.045342,114.418107,2-3千/月,
石家庄弘丰行汽车销售服务有限公司 ,库管,https://jobs.51job.com/shijiazhuang/105345593.html?s=01&t=0,38.07645,114.410717,4-5千/月,
石家庄弘丰行汽车销售服务有限公司,库管,https://jobs.51job.com/shijiazhuang/105345593.html?s=01&t=0,38.07645,114.410717,,新华区石获北路植物园街交叉口西行500路南
石家庄弘丰行汽车销售服务有限公司,配件管理员,https://jobs.51job.com/shijiazhuang/108021688.html?s=01&t=0,38.07645,114.410717,,新华区石获北路植物园街交叉口西行500路南
石家庄汇智创想软件开发有限责任公司 ,网页设计师,https://jobs.51job.com/shijiazhuang/101516391.html?s=01&t=0,38.06359,114.55107,4.5-6千/月,
石家庄汇智创想软件开发有限责任公司,网页设计师,https://jobs.51job.com/shijiazhuang/101516391.html?s=01&t=0,38.06359,114.55107,,长安区建华北大街138号百川大厦西座2012室
石家庄冀通工贸有限公司,仓储物流专员,https://jobs.51job.com/shijiazhuang/107642346.html?s=01&t=0,38.048614,114.479664,,桥西区中山西路188号中华商务中心A座1810室
石家庄冀通工贸有限公司,仓库管理员,https://jobs.51job.com/shijiazhuang/107641949.html?s=01&t=0,38.048614,114.479664,,桥西区中山西路188号中华商务中心A座1810室
石家庄驹马物流有限公司 ,运力专员,https://jobs.51job.com/shijiazhuang/105681559.html?s=01&t=0,38.063729,114.551045,4.5-6千/月,
石家庄君乐宝乳业有限公司,物流调度员,https://jobs.51job.com/shijiazhuang/106235275.html?s=01&t=0,38.01234,114.454546,,鹿泉市石铜路36号
石家庄卡行科技有限公司,仓库管理员,https://jobs.51job.com/shijiazhuang/106087421.html?s=01&t=0,38.040953,114.540413,,裕华区裕华路108号方北商务15层
石家庄开发区华能电气有限公司,仓库主管,https://jobs.51job.com/shijiazhuang/97371164.html?s=01&t=0,38.043887,114.706979,,石家庄良村经济开发区岗上
石家庄蓝海工具有限公司,,https://jobs.51job.com/shijiazhuang/80922553.html?s=01&t=0,37.996744,114.579094,,
石家庄朗诚文化传媒有限公司,仓库配货员(职位编号：03),https://jobs.51job.com/shijiazhuang/105393683.html?s=01&t=0,,,,栾城区东留营村东留营嘉园东行50米路北
石家庄亮光贸易有限公司,仓库管理员,https://jobs.51job.com/shijiazhuang/105999592.html?s=01&t=0,38.049011,114.495249,,解放广场华北眼镜城
石家庄绿雀科技有限公司,车辆管理专员,https://jobs.51job.com/shijiazhuang/109739619.html?s=01&t=0,38.128764,114.541122,,河北省石家庄市长安区胜利北大街开启利路1号
石家庄蚂蚁搬家保洁服务有限公司,诚聘搬运工包食宿,https://jobs.51job.com/shijiazhuang/108072629.html?s=01&t=0,38.048684,114.520828,,石家庄
石家庄满仓医药药材贸易有限公司,仓库管理员（鹿泉）,https://jobs.51job.com/shijiazhuang/109552318.html?s=01&t=0,,,,石家庄市鹿泉区南海山村东
石家庄曼暖商贸有限公司,库管助理,https://jobs.51job.com/shijiazhuang/99824679.html?s=01&t=0,38.032885,114.518939,,建设南大街102号（新世隆广场对面）
石家庄派尔耐墙纸有限公司 ,专业库管,https://jobs.51job.com/shijiazhuang/75515294.html?s=01&t=0,38.228993,114.636296,3-4.5千/月,
石家庄派尔耐墙纸有限公司,专业库管,https://jobs.51job.com/shijiazhuang/75515294.html?s=01&t=0,38.228993,114.636296,,石家庄市正定县新安镇政府对过
石家庄三和彩钢结构有限公司,钢结构工厂高薪招聘库管,https://jobs.51job.com/shijiazhuang/106076256.html?s=01&t=0,37.992825,114.595149,,裕华区西京北村附近
石家庄盛世和和商贸有限公司,仓库管理员,https://jobs.51job.com/shijiazhuang/107048814.html?s=01&t=0,37.98023,114.562074,,方村工业园
石家庄市安瑞尔机械制造有限公司,仓库管理员,https://jobs.51job.com/shijiazhuang/99237946.html?s=01&t=0,38.070528,114.420887,2-4千/月,
石家庄市百草中药材饮片有限公司,仓库主管(职位编号：027),https://jobs.51job.com/shijiazhuang/98108778.html?s=01&t=0,37.925575,114.565781,2-3千/月,
石家庄市德之雅家居用品有限公司,4k-6k库房经理1名,https://jobs.51job.com/shijiazhuang/106905679.html?s=01&t=0,38.096367,114.483808,,新华区中华北大街312号
石家庄市藁城区燃亮烛业有限公司,工厂库管,https://jobs.51job.com/shijiazhuang/108415367.html?s=01&t=0,38.057729,114.475615,,石家庄市新华区与维明大街交叉口领事商务702
石家庄市广博医疗器械有限公司,仓库管理员,https://jobs.51job.com/shijiazhuang/104946591.html?s=01&t=0,38.265672,114.681805,,石铜路西三环外福建中小企业科技园6号楼广博医疗器械
石家庄市广博医疗器械有限公司,储运主管,https://jobs.51job.com/shijiazhuang/104946933.html?s=01&t=0,38.265672,114.681805,4.5-6千/月,
石家庄市陆升水处理设备有限公司,仓库管理员（男）,https://jobs.51job.com/shijiazhuang/103639416.html?s=01&t=0,38.001025,114.47019,3-4.5千/月,
石家庄市明亨物流有限公司,分拣员,https://jobs.51job.com/shijiazhuang/109631418.html?s=01&t=0,38.191755,114.5895,,正定国际物流园
石家庄市明亨物流有限公司,装卸工,https://jobs.51job.com/shijiazhuang/109479427.html?s=01&t=0,38.191755,114.5895,,正定国际物流园
石家庄市纳泽商贸有限公司,仓库管理员,https://jobs.51job.com/shijiazhuang/109494592.html?s=01&t=0,38.027948,114.570154,,裕华区谈固南大街与槐安路交口西美SOHO608室
石家庄市纳泽商贸有限公司,库管,https://jobs.51job.com/shijiazhuang/103711705.html?s=01&t=0,38.027948,114.570154,2-3千/月,
石家庄市长安区润晖照明电器销售中心,库管,https://jobs.51job.com/shijiazhuang/98705944.html?s=01&t=0,38.104414,114.530386,,石家庄胜利北大街华北灯具城
石家庄顺瀚商贸有限公司,仓库管理员,https://jobs.51job.com/shijiazhuang/102755692.html?s=01&t=0,38.100507,114.501398,2-3千/月,
石家庄苏宁易购商贸有限公司,仓储管理部长(009237)(职位编号：suning009237),https://jobs.51job.com/shijiazhuang/97201389.html?s=01&t=0,38.048684,114.520828,3.5-4.5千/月,
石家庄苏宁易购商贸有限公司,仓管员（天山海世界店红孩子母婴）,https://jobs.51job.com/shijiazhuang/110076470.html?s=01&t=0,38.048312,114.521529,,石家庄市
石家庄苏宁易购商贸有限公司,仓库管理员,https://jobs.51job.com/shijiazhuang/110391679.html?s=01&t=0,38.023126,114.736005,,河北省石家庄市赣江路70号（苏宁物流藁城中心）
石家庄桃李食品有限公司,,https://jobs.51job.com/shijiazhuang/102407524.html?s=01&t=0,38.034647,114.727005,,
石家庄天利医药有限公司,仓库管理员,https://jobs.51job.com/shijiazhuang/110081767.html?s=01&t=0,38.064471,114.511875,,光华路6号荣盛写字楼17楼
石家庄旺贝特服饰有限公司,物流仓储主管,https://jobs.51job.com/shijiazhuang/84985566.html?s=01&t=0,38.048684,114.520828,,石家庄
石家庄伟天科学仪器设备有限公司,仓库保管员,https://jobs.51job.com/shijiazhuang/105986241.html?s=01&t=0,38.027293,114.504058,,石家庄槐安东路8号香榭苑1-3-1603
石家庄小罐茶贸易有限公司,仓库管理员,https://jobs.51job.com/shijiazhuang/103578190.html?s=01&t=0,38.048339,114.51225,3-4.5千/月,
石家庄炎煌医学图书有限公司,仓库管理员,https://jobs.51job.com/shijiazhuang/109104681.html?s=01&t=0,38.022558,114.510372,,桥西区 石铜路580号，河北（福建）中小科技园区内
石家庄银河微波技术有限公司 ,结构库房,https://jobs.51job.com/shijiazhuang/101830711.html?s=01&t=0,38.056716,114.354551,2-4千/月,
石家庄银河微波技术有限公司,结构库房,https://jobs.51job.com/shijiazhuang/101830711.html?s=01&t=0,38.056716,114.354551,,鹿泉开发区御园路99号光谷科技园
石家庄英利体育用品有限公司,,https://jobs.51job.com/shijiazhuang/89898971.html?s=01&t=0,38.006661,114.518928,,
石家庄英利体育用品有限公司,仓库管理员,https://jobs.51job.com/shijiazhuang/89898971.html?s=01&t=0,38.006661,114.518928,,石家庄裕翔街与南车路交口（新润丰物流园西侧）
石家庄宇田化工有限公司,仓库管理员,https://jobs.51job.com/shijiazhuang/107167696.html?s=01&t=0,38.060776,114.506405,,平安北街和平路交口西北角紫晶广场B2102
石家庄宇鑫物流有限公司,平台运营专员4千+,https://jobs.51job.com/shijiazhuang/87800699.html?s=01&t=0,38.176974,114.560761,,石家庄市正定县曙光路与车站西街交叉口北行600米路西  宇鑫物流
石家庄宇鑫物流有限公司,招普工装卸工  5000+包吃住,https://jobs.51job.com/shijiazhuang/91324234.html?s=01&t=0,38.176974,114.560761,,石家庄市正定县曙光路与车站西街交叉口北行600米路西  宇鑫物流
石家庄雨墨教育科技有限公司,,https://jobs.51job.com/shijiazhuang/102933141.html?s=01&t=0,38.023723,114.46557,,
石家庄远成物流有限公司,现场操作员,https://jobs.51job.com/shijiazhuang/84249862.html?s=01&t=0,38.071892,114.51843,,建设北大街141号东货场院内4楼
石家庄正中科技有限公司,装卸工,https://jobs.51job.com/shijiazhuang/96800436.html?s=01&t=0,38.164787,114.591765,3-4.5千/月,
石家庄中升大通汽车销售服务有限公司,库管员,https://jobs.51job.com/shijiazhuang/110133543.html?s=01&t=0,,,,胜利北街翠屏路交口北行200米东风日产中升大通专营店
石药集团,库管(J11731),https://jobs.51job.com/shijiazhuang/110089714.html?s=01&t=0,38.022908,114.486608,,桥西区华星路6号
苏州嘉图软件有限公司,,https://jobs.51job.com/shijiazhuang/99018862.html?s=01&t=0,38.051716,114.517954,,
苏州市王森企业管理咨询服务有限公司,仓库管理员（保定校区）,https://jobs.51job.com/baoding/106601945.html?s=01&t=0,38.533438,115.014519,,河北省保定市定州市北门街132号
苏州市王森企业管理咨询服务有限公司,仓库管理员（定州校区）,https://jobs.51job.com/baoding/107455225.html?s=01&t=0,38.533438,115.014519,,河北省保定市定州市北门街132号
泰康人寿保险有限责任公司河北分公司,,https://jobs.51job.com/shijiazhuang/101273315.html?s=01&t=0,38.0513,114.458603,,
泰康人寿保险有限责任公司河北分公司 ,S底薪4千+高提成+室内长白班(职位编号：999),https://jobs.51job.com/shijiazhuang/100209763.html?s=01&t=0,38.0513,114.458603,6-8千/月,
唐山曹妃甸通益机电设备有限公司,车间库管,https://jobs.51job.com/tangshan/109967859.html?s=01&t=0,39.100765,118.49485,,河北省唐山市曹妃甸工业区装备制造园区唐山曹妃甸通益机电设备有限公司
唐山高德食品有限公司,仓库保管员,https://jobs.51job.com/tangshan/104914589.html?s=01&t=0,39.597013,118.149917,2-3千/月,
唐山海泰新能科技股份有限公司,仓库管理员,https://jobs.51job.com/tangshan/109572882.html?s=01&t=0,39.878658,117.728035,,玉田县玉泰工业区豪门路88号
唐山杭叉叉车销售有限公司,,https://jobs.51job.com/tangshan/68056577.html?s=01&t=0,39.725539,118.167717,,
唐山金万利商贸有限公司,仓库管理员,https://jobs.51job.com/tangshan/104513625.html?s=01&t=0,39.669242,118.193943,3-4.5千/月,
唐山凯昂实业有限公司,仓库管理员,https://jobs.51job.com/tangshan/108818845.html?s=01&t=0,39.523817,118.171121,,丰南经济技术开发区
唐山荣川实业集团有限公司,备件经理,https://jobs.51job.com/tangshan/100732731.html?s=01&t=0,39.67582,118.115243,4.5-6千/月,
唐山三孚硅业股份有限公司,仓库管理员,https://jobs.51job.com/tangshan/109463474.html?s=01&t=0,39.238932,118.214165,,唐山市曹妃甸区南堡开发区
唐山盛航环保机车制造有限公司,备件库管理人员,https://jobs.51job.com/tangshan/110035774.html?s=01&t=0,39.649644,117.933771,,丰润区小张各镇大坎村东
唐山市凤凰人家食品有限公司 ,仓库管理员,https://jobs.51job.com/tangshan/101685431.html?s=01&t=0,39.674992,118.169608,2-3.5千/月,
唐山市凤凰人家食品有限公司,仓库管理员,https://jobs.51job.com/tangshan/95810225.html?s=01&t=0,39.702278,118.154416,,路北区盛华古玩城附近
唐山市凤凰人家食品有限公司,库工/装卸工,https://jobs.51job.com/tangshan/106522602.html?s=01&t=0,39.701922,118.149813,,路北区盛华古玩城对面仓库
唐山市福兴货运有限公司 ,叉车司机包吃住,https://jobs.51job.com/tangshan/95854105.html?s=01&t=0,39.575378,118.203407,3-4.5千/月,
唐山市福兴货运有限公司,叉车司机包吃住,https://jobs.51job.com/tangshan/95854105.html?s=01&t=0,39.575378,118.203407,,路南区三角地
唐山市福兴货运有限公司,物流主管,https://jobs.51job.com/tangshan/107443004.html?s=01&t=0,39.575378,118.203407,,路南区三角地
唐山市富仟商贸有限公司,仓库管理员,https://jobs.51job.com/tangshan/103182111.html?s=01&t=0,39.631025,118.17715,3-4.5千/月,
唐山市汇旺行工贸股份有限公司,仓库管理员,https://jobs.51job.com/tangshan/108470296.html?s=01&t=0,39.663437,118.115369,,路北区马驹桥汇融物流
唐山市汇旺行工贸股份有限公司,物流主管,https://jobs.51job.com/tangshan/108470943.html?s=01&t=0,39.663437,118.115369,,路北区马驹桥汇融物流
唐山市金虹桥商贸有限公司,仓库管理员,https://jobs.51job.com/tangshan/106524782.html?s=01&t=0,39.631234,118.283558,,河北省唐山市开平工业园康各庄附近
唐山市金虹桥商贸有限公司,跟车员,https://jobs.51job.com/tangshan/106526582.html?s=01&t=0,39.631234,118.283558,,河北省唐山市开平工业园康各庄附近
唐山市神州机械有限公司,仓库管理员,https://jobs.51job.com/tangshan/106433372.html?s=01&t=0,39.576428,118.201631,,路南区稻地镇三角地南
唐山市泽瑞商贸有限公司,送货员,https://jobs.51job.com/tangshan/106780354.html?s=01&t=0,39.7167,118.265269,,开平区后陡河村
唐山市震恒商贸有限公司,仓库管理员,https://jobs.51job.com/tangshan/101619985.html?s=01&t=0,,,,唐山路北区东工房（唐山市汽车部件厂院内）
唐山坦达轨道车辆座椅有限公司,采购,https://jobs.51job.com/tangshan/109980790.html?s=01&t=0,39.818601,118.175249,,唐山市丰润区林荫南路正丰国际酒店对面科奥蒲森物流院内
唐山翔驰陆宝汽车维修有限公司,,https://jobs.51job.com/tangshan/99092396.html?s=01&t=0,39.599008,118.199491,,
唐山翔驰陆宝汽车维修有限公司,仓库管理员,https://jobs.51job.com/tangshan/99092396.html?s=01&t=0,39.599008,118.199491,,路南区南湖大道金恒汽配城陆宝汽车服务
唐山迎朋医疗器械有限公司,仓库管理员,https://jobs.51job.com/tangshan/104188347.html?s=01&t=0,39.621454,118.21611,3-4.5千/月,
唐山中储鼎天物流有限公司 ,理货员（曹妃甸）,https://jobs.51job.com/tangshan/105541352.html?s=01&t=0,39.651532,118.163228,3.5-5千/月,
唐山中储鼎天物流有限公司,理货员（曹妃甸）,https://jobs.51job.com/tangshan/105541352.html?s=01&t=0,39.651532,118.163228,,路北区金融中心
唐山中陶实业有限公司,仓库经理,https://jobs.51job.com/tangshan/108165795.html?s=01&t=0,,,,路北区天元里商业211号
唐山中陶实业有限公司,仓库主管,https://jobs.51job.com/tangshan/105208158.html?s=01&t=0,39.597609,118.208804,4-6千/月,
唐山中陶实业有限公司,库管员,https://jobs.51job.com/tangshan/107863506.html?s=01&t=0,39.597609,118.208804,,河北唐山市南湖大道与荷花南路交汇处
唐山中再生资源开发有限公司,司磅员,https://jobs.51job.com/tangshan/105513807.html?s=01&t=0,39.871784,117.619061,,玉田县后湖工业聚集区
天地华宇集团,,https://jobs.51job.com/langfang/98632210.html?s=01&t=0,39.419868,116.321859,,
天地华宇集团,诚聘理货员/送货员(大厂),https://jobs.51job.com/langfang/97844156.html?s=01&t=0,,,,大厂回族自治区大厂渔具城西侧200米路南
天地华宇集团,诚聘理货员/送货员(渠口镇),https://jobs.51job.com/langfang/97780844.html?s=01&t=0,39.774265,117.126852,,廊坊市香河县渠口镇王刘圈村唐通公路北侧
天地华宇集团,诚聘理货员/送货员(香河),https://jobs.51job.com/langfang/97857852.html?s=01&t=0,39.749762,116.997904,,香河县亚太国际家居材料城A1-15
天地华宇集团,唐山高新区天地华宇招聘业务员,https://jobs.51job.com/tangshan/99447997.html?s=01&t=0,,,,唐山高新区大庆道与龙泽路交口东行700米道北李各庄公交车站点
天地华宇集团,提/送货员（衡水安平）,https://jobs.51job.com/hengshui/98649263.html?s=01&t=0,37.364389,115.973569,,衡水安平县北新大道与丝网街交叉口西行200米天地华宇物流
天地华宇集团,提/送货员（石家庄正定）,https://jobs.51job.com/shijiazhuang/100346195.html?s=01&t=0,38.173254,114.565501,,石家庄市正定县车站西街3号天地华宇物流
天地华宇集团,提\送货员（河间）,https://jobs.51job.com/cangzhou/102009796.html?s=01&t=0,38.738467,116.100393,,河间市新市区曙光东路与河卧路口西行100米路北天地华宇
天地华宇集团,天地华宇诚聘装卸工（包吃住）,https://jobs.51job.com/shijiazhuang/109862891.html?s=01&t=0,,,,石家庄市裕华区翟营南大街方兴路东段西京北天地华宇
天地华宇集团,物流营业员（廊坊）,https://jobs.51job.com/langfang/98632210.html?s=01&t=0,39.419868,116.321859,,固安县市民胡同中心往南100米盛兴通汽配城
天地华宇集团,物流专员,https://jobs.51job.com/langfang/98734136.html?s=01&t=0,,,,河北省廊坊市霸州胜芳镇霸杨线十二中斜对面中国联通隔壁
天地华宇集团,装卸工（石家庄裕华区）,https://jobs.51job.com/shijiazhuang/102755752.html?s=01&t=0,37.992675,114.59438,3.5-7千/月,
天津市通达发金属工具有限公司,理货员,https://jobs.51job.com/tangshan/99424332.html?s=01&t=0,39.617492,118.263494,,东华五金城28栋4-5号
天津市通达发金属工具有限公司,理货员/搬运工/装卸工/库管（唐山）,https://jobs.51job.com/tangshan/94368858.html?s=01&t=0,39.598668,118.207163,2.5-3.5千/月,
天津市中仕众创空间有限公司,聘有意愿转行计算机互联网行业人员,https://jobs.51job.com/tangshan/99539728.html?s=01&t=0,39.630775,118.182606,4.5-6千/月,
天域生态环境股份有限公司 ,物资管理员/物资主管/物资管理经理,https://jobs.51job.com/baoding/96806090.html?s=01&t=0,38.947859,115.973945,6-8千/月,
天域生态环境股份有限公司,物资管理员/物资主管/物资管理经理,https://jobs.51job.com/baoding/96806090.html?s=01&t=0,38.947859,115.973945,,雄安新区
铁山档案文件管理（上海）有限公司,仓库理货员/操作工/搬运工/工人,https://jobs.51job.com/langfang/107957317.html?s=01&t=0,39.543367,116.690577,,廊坊
网赢供应链有限公司,仓配主管,https://jobs.51job.com/baoding/108552952.html?s=01&t=0,39.015896,115.680418,,河北省保定市徐水区晨兴大街1号河北晨阳物流有限公司
五得利面粉集团有限公司 ,收料员,https://jobs.51job.com/handan/104513571.html?s=01&t=0,36.290314,115.18441,3.5-4千/月,
五得利面粉集团有限公司,保管员/库管员,https://jobs.51job.com/handan/52196140.html?s=01&t=0,36.293121,115.144639,3-4千/月,
五得利面粉集团有限公司,收料员,https://jobs.51job.com/handan/104513571.html?s=01&t=0,36.290314,115.18441,,大名县五得利街五得利办公楼
武汉华康世纪洁净室技术工程有限公司,,https://jobs.51job.com/shijiazhuang/96199178.html?s=01&t=0,38.112783,114.354072,,
武汉食通天餐饮有限公司,库房管理员（石家庄万象城店）,https://jobs.51job.com/shijiazhuang/103136224.html?s=01&t=0, , ,,桥西区自强路与黎明街交叉口万象城6楼食悦天美食广场店
香河县忠信厨房设备有限公司 ,保管,https://jobs.51job.com/langfang/105457465.html?s=01&t=0,39.758617,117.049861,3-4.5千/月,
香河县忠信厨房设备有限公司,仓库管理员,https://jobs.51job.com/langfang/107581965.html?s=01&t=0,39.753805,117.028619,,香河县城东淑阳工业园
辛集市巨发皮具商行,仓库管理员,https://jobs.51job.com/shijiazhuang/107899554.html?s=01&t=0,37.955929,115.242257,,河北省石家庄辛集市国际皮革城
新康众集团,仓储主管（城市仓-保定）,https://jobs.51job.com/baoding/110022839.html?s=01&t=0,38.882696,115.487793,,主城区
新康众集团,仓储主管（城市仓-石家庄）,https://jobs.51job.com/shijiazhuang/110022962.html?s=01&t=0,38.354559,114.702531,,主城区
新康众集团,仓储主管（城市仓-唐山）,https://jobs.51job.com/tangshan/110022873.html?s=01&t=0,39.67587,118.183583,,主城区
新立科技股份有限公司,样件组组长,https://jobs.51job.com/baoding/105419177.html?s=01&t=0,39.018603,115.367844,,保定市满城区大册营镇
邢台市龙滨橡塑制品有限公司,仓库管理员,https://jobs.51job.com/xingtai/98500681.html?s=01&t=0,,,,邢台市任县天口镇东刘闸开发区1号
邢台通骏汽车销售有限公司,配件管理员,https://jobs.51job.com/xingtai/107033719.html?s=01&t=0,,,,桥东区龙岗东大街汽车城北区18号
烟台盛凡食品有限公司,（搬运工）日结薪资免费包吃住,https://jobs.51job.com/yantai/107507310.html?s=01&t=0,,,,芝罘区南大街与北马路交汇处75号
烟台盛凡食品有限公司,搬运工,https://jobs.51job.com/yantai/107285921.html?s=01&t=0,,,,芝罘区南大街与北马路交汇处75号
烟台盛凡食品有限公司,四百一天急招（搬运工）,https://jobs.51job.com/yantai/107256507.html?s=01&t=0,,,,芝罘区南大街与北马路交汇处75号
宜来（天津）卫浴有限公司上海分公司,,https://jobs.51job.com/tangshan/100486539.html?s=01&t=0,39.426041,118.353479,,
易高服务管理有限公司,,https://jobs.51job.com/tangshan/103117628.html?s=01&t=0,39.906695,117.745243,,
易高服务管理有限公司,仓库主管,https://jobs.51job.com/tangshan/103482959.html?s=01&t=0,39.906695,117.745243,,玉田县.
益海（石家庄）粮油工业有限公司,理货员,https://jobs.51job.com/shijiazhuang/110063849.html?s=01&t=0,38.034453,114.68157,,扬子路55号
益海（石家庄）粮油工业有限公司,物流储备,https://jobs.51job.com/shijiazhuang/85146042.html?s=01&t=0,38.034453,114.68157,3.5-4.5千/月,
英迈特重型机械（中国）有限公司,仓库管理员,https://jobs.51job.com/zhangjiakou/109728080.html?s=01&t=0,40.764161,114.798164,,张家口市西山产业集聚区
永新县佳顺泰达物流有限公司,仓库理货员,https://jobs.51job.com/baoding/103413948.html?s=01&t=0,39.269423,115.814406,4-4.5千/月,
远成物流股份有限公司,装卸工,https://jobs.51job.com/shijiazhuang/98947347.html?s=01&t=0,,,,藁城区丘头镇南延路21号远成快运
云谷（固安）科技有限公司,仓库管理员/库管员,https://jobs.51job.com/langfang/104587657.html?s=01&t=0,39.462917,116.298955,,固安县云谷（固安）科技有限公司
招商路凯（中国）投资控股有限公司,OPS-安全高级主管-仓库物流生产(职位编号：loscam000855),https://jobs.51job.com/beijing/108156772.html?s=01&t=0,39.658568,116.672905,,大兴区采育镇粮库东侧50米
招商路凯（中国）投资控股有限公司,OPS-仓库管理员-物流生产(职位编号：loscam000836),https://jobs.51job.com/beijing-dxq/105132375.html?s=01&t=0,39.911013,116.413554,6-8万/年,
招商路凯（中国）投资控股有限公司,OPS-高级营运主管-仓库物流生产(职位编号：loscam000824),https://jobs.51job.com/beijing/104479276.html?s=01&t=0,39.658568,116.672905,15-20万/年,
招商路凯（中国）投资控股有限公司,OPS-高级营运主管-仓库物流生产(职位编号：loscam000829),https://jobs.51job.com/beijing/104800156.html?s=01&t=0,39.658568,116.672905,,大兴区采育镇粮库东侧50米
招商路凯（中国）投资控股有限公司,OPS-营运助理-仓库物流(职位编号：loscam000749),https://jobs.51job.com/shenzhen/99752891.html?s=01&t=0,,,,系统不支持同岗位多上班地址匹配，以发布城市为准
招商路凯（中国）投资控股有限公司,OPS-营运助理-仓库物流(职位编号：loscam000763),https://jobs.51job.com/beijing/100553658.html?s=01&t=0,,,,系统不支持同岗位多上班地址匹配，以发布城市为准
招商路凯（中国）投资控股有限公司,仓库管理员,https://jobs.51job.com/tangshan/98372673.html?s=01&t=0,,,,河北省唐山市曹妃甸工业区装备制造园区台湾产业园北侧
兆航物流南北二区,仓库管理员,https://jobs.51job.com/shijiazhuang/109954017.html?s=01&t=0,38.080448,114.318828,,鹿泉区龙泉路56号
兆航物流南北二区,储备干部,https://jobs.51job.com/shijiazhuang/99894977.html?s=01&t=0,38.080448,114.318828,,鹿泉区龙泉路56号
兆航物流南北二区,项目经理（退伍军人）,https://jobs.51job.com/shijiazhuang/110006547.html?s=01&t=0,38.080448,114.318828,,鹿泉区龙泉路56号
浙江戈美其鞋业有限公司,,https://jobs.51job.com/langfang/100063502.html?s=01&t=0,39.327853,116.505429,,
浙江亚厦装饰股份有限公司,仓管员（上市500强+包住）,https://jobs.51job.com/beijing/104085492.html?s=01&t=0,39.910925,116.413384,,北京
浙江芝麻开门供应链管理有限公司,现场管理员,https://jobs.51job.com/tianjin-wqq/104424375.html?s=01&t=0,39.559773,116.79862,3-4.5千/月,
浙江中通通信有限公司,仓库管理员,https://jobs.51job.com/xiongan-xaxq/101740993.html?s=01&t=0,38.946944,115.940222,3-4.5千/月,
浙江中通通信有限公司,仓库管理员（石家庄）,https://jobs.51job.com/shijiazhuang/109451540.html?s=01&t=0,38.079987,114.345734,,石家庄市鹿泉区307国道与石柏大街交口东北角国储仓库
正大食品企业（秦皇岛）有限公司,保管员,https://jobs.51job.com/qinhuangdao/63507131.html?s=01&t=0,40.016486,119.774201,2-3千/月,
中储南京智慧物流科技有限公司,运力专员（线下调度）,https://jobs.51job.com/tangshan/102908310.html?s=01&t=0,,,,常驻工作地
中储南京智慧物流科技有限公司,运力专员（线下调度）（邯郸曲周地区）,https://jobs.51job.com/handan/109868669.html?s=01&t=0,,,,发布地为常驻工作地
中国电子系统工程第四建设有限公司,,https://jobs.51job.com/shijiazhuang/98215368.html?s=01&t=0,38.037902,114.492217,,
中国进口汽车贸易有限公司,进口汽车仓库管理员,https://jobs.51job.com/beijing-hdq/101105409.html?s=01&t=0,39.990414,116.33462,3.5-4千/月,
中节能张家口风力发电有限公司,仓库管理员,https://jobs.51job.com/zhangjiakou/102965639.html?s=01&t=0,,,,张北县内各风场
中经国际能源投资管理集团有限公司,石油仓储、物流项目经理,https://jobs.51job.com/tangshan/109971851.html?s=01&t=0,39.25135,117.827342,,汉沽码头
中联物流（中国）有限公司,现场管理员（张家口高新区）,https://jobs.51job.com/zhangjiakou/101324874.html?s=01&t=0,,,,张家口市左卫镇南山经济技术开发区中瑞大街2号（领克汽车张家口工厂）
庄河市吉祥物流有限公司 ,《十万火急》诚聘 送货员 仓管,https://jobs.51job.com/tangshan/105697837.html?s=01&t=0,39.744968,116.282779,6-8千/月,
庄河市吉祥物流有限公司 ,《招工》长途配送员 理货员,https://jobs.51job.com/baoding/105771640.html?s=01&t=0,39.744968,116.282779,6-8千/月,
淄博中氢气体有限公司 ,调度,https://jobs.51job.com/hengshui/98031848.html?s=01&t=0,37.807764,115.894514,3-4.5千/月,
